id	stop_id	lat	lon	x	y	stop_name	info	source_name
0	3630	55.79290264	37.78772601	6210837.511763489	4549481.865520985	5-я Парковая ул.	5-я Парковая ул.	data.mos
1	3631	55.79301399	37.7938182	6210849.907188788	4550340.0449591605	7-я Парковая ул.	7-я Парковая ул.	data.mos
2	3632	55.79309877	37.79882395	6210859.344855218	4551045.235436378	Метро «Первомайская»	Метро «Первомайская»	data.mos
3	3633	55.79343936	37.81981326	6210897.259160588	4554002.647753395	15-я Парковая ул.	15-я Парковая ул.	data.mos
4	3627	55.7866487	37.76169693	6210141.326347237	4545816.062534571	Главная ал.	Главная ал.	data.mos
5	3701	55.79949205	37.68612005	6211571.041529316	4535179.5031460505	Ул. Короленко	Ул. Короленко	data.mos
6	3731	55.77232795	37.65776441	6208547.147749459	4531191.576247251	Новорязанская ул.	Новорязанская ул.	data.mos
7	3704	55.79929487	37.72850093	6211549.0915521225	4541142.778187283	Халтуринская ул.	Халтуринская ул.	data.mos
8	3939	55.7586587282	37.7521852608	6207025.496939142	4544476.809373794	Метро «Ш. Энтузиастов»	Метро «Ш. Энтузиастов»	data.mos
9	3756	55.69179028	37.66635483	6199581.735335383	4532399.5689101815	Южный речной вокз.	Южный речной вокз.	data.mos
10	3705	55.80230284	37.72689301	6211883.937240844	4540916.470767453	Черкизово	Черкизово	data.mos
11	3803	55.68532783	37.70808591	6198862.338692105	4538269.821785958	Нагатинский затон	Нагатинский затон	data.mos
12	3758	55.71150711	37.66609622	6201776.602811039	4532363.200896137	Велозаводский рынок	Велозаводский рынок	data.mos
13	3707	55.79370757	37.82154197	6210927.116161213	4554246.261996627	16-я Парковая ул.	16-я Парковая ул.	data.mos
14	3804	55.60246308	37.58945246	6189637.876917393	4521590.457546965	Чертановская улица, 53	Чертановская улица, 53	data.mos
15	3708	55.79367591	37.81877179	6210923.591786134	4553855.88388617	15-я Парковая ул.	15-я Парковая ул.	data.mos
16	3759	55.71311863	37.66365294	6201955.996396843	4532019.611614578	Ул. Ленинская Слобода	Ул. Ленинская Слобода	data.mos
17	3710	55.79345224	37.80513675	6210898.692955629	4551934.626141732	К/т «Первомайский»	К/т «Первомайский»	data.mos
18	3805	55.61949019	37.59394526	6191533.326132275	4522221.641384619	Чертановская ул., 28	Чертановская ул., 28	data.mos
19	3712	55.79328531	37.79351143	6210880.110393031	4550296.829955489	7-я Парковая ул.	7-я Парковая ул.	data.mos
20	3634	55.79348732	37.82240578	6210902.598043365	4554367.994453342	16-я Парковая ул.	16-я Парковая ул.	data.mos
21	3806	55.61971205	37.5937583	6191558.023474502	4522195.375015288	Чертановская ул., 28	Чертановская ул., 28	data.mos
22	3714	55.79287267	37.78237946	6210834.17551835	4548728.779328386	3-я Парковая ул.	3-я Парковая ул.	data.mos
23	3636	55.79367666	37.8196404	6210923.675275752	4553978.288193005	15-я Парковая улица	15-я Парковая улица	data.mos
24	3720	55.78106828	37.71572353	6209520.116834424	4539344.552895399	Б. Семеновская ул.	Б. Семеновская ул.	data.mos
25	3807	55.60254477	37.5892918	6189646.970606597	4521567.887473707	Чертановская улица, 53	Чертановская улица, 53	data.mos
26	3637	55.79356552	37.81296223	6210911.303227546	4553037.239155078	13-я Парковая ул.	13-я Парковая ул.	data.mos
27	3723	55.78120327	37.69559672	6209535.143852486	4536512.6384447655	Переведеновский пер.	Переведеновский пер.	data.mos
28	3638	55.79328374	37.79431249	6210879.93562143	4550409.676474521	7-я Парковая улица	7-я Парковая улица	data.mos
29	3808	55.6871359	37.68246978	6199063.612123825	4534666.045028578	Якорная ул.	Якорная ул.	data.mos
30	3724	55.77917108	37.6915218	6209308.921496491	4535939.376154399	Бакунинская ул., 84	Бакунинская ул., 84	data.mos
31	3809	55.68321282	37.68259728	6198626.896855883	4534683.979141789	Затонная ул.	Затонная ул.	data.mos
32	3725	55.77763099	37.68908509	6209137.479461916	4535596.593320657	Балакиревский пер.	Балакиревский пер.	data.mos
33	3639	55.79309612	37.7888255	6210859.049858567	4549636.740505773	5-я Парковая ул.	5-я Парковая ул.	data.mos
34	3810	55.67789286	37.68555547	6198034.681617643	4535100.085948458	Поликлиника	Поликлиника	data.mos
35	3640	55.79299456	37.78351658	6210847.744251082	4548888.943356458	3-я Парковая ул.	3-я Парковая ул.	data.mos
36	3729	55.77159956	37.66947884	6208466.06374556	4532838.904700052	Спартаковская ул.	Спартаковская ул.	data.mos
37	3628	55.79134795	37.7753453	6210664.444464347	4547738.06847097	Измайловская пл.	Измайловская пл.	data.mos
38	3730	55.77233515	37.66338778	6208547.949249793	4531982.323840868	2-й троллейбусный парк	2-й троллейбусный парк	data.mos
39	3818	55.67843726	37.68554388	6198095.28394843	4535098.455636111	Поликлиника	Поликлиника	data.mos
40	3890	55.8030616	37.78949321	6211968.402017678	4549730.795761062	Управа района Северное Измайлово	Управа района Северное Измайлово	data.mos
41	3629	55.79265201	37.78253568	6210809.611759511	4548750.782862258	3-я Парковая улица	3-я Парковая улица	data.mos
42	3819	55.68317477	37.68320288	6198622.661149258	4534769.163083975	Затонная ул.	Затонная ул.	data.mos
43	3923	55.82480968	37.75877062	6214389.387209009	4545404.016628794	Монтажная ул.	Монтажная ул.	data.mos
44	3924	55.82301887	37.75532705	6214190.035151701	4544919.157597628	Консультативно-диагностический центр	Консультативно-диагностический центр	data.mos
45	3820	55.68681487	37.68304223	6199027.875227695	4534746.565921895	Якорная ул.	Якорная ул.	data.mos
46	3925	55.82072335	37.75089068	6213934.499034196	4544294.544328761	Тагильская ул.	Тагильская ул.	data.mos
47	3822	55.58898692	37.61070682	6188137.717648345	4524576.7733653085	Центр детского творчества «Виктория»	Центр детского творчества «Виктория»	data.mos
48	3895	55.80378443	37.75854367	6212048.867085208	4545372.061085735	37-й квартал Измайлова	37-й квартал Измайлова	data.mos
49	3926	55.81750915	37.74323705	6213576.695926889	4543217.048911305	Плодоовощной комбинат	Плодоовощной комбинат	data.mos
50	3897	55.80127436	37.7447977	6211769.447370953	4543436.751719339	Метро «Черкизовская»	Метро «Черкизовская»	data.mos
51	3931	55.75676676	37.74242292	6206814.884002522	4543102.440397109	Просп. Буденного	Просп. Буденного	data.mos
52	3902	55.79570127	37.71285109	6211149.053830008	4538940.343221317	Метро «Преображенская пл.»	Метро «Преображенская пл.»	data.mos
53	3789	55.73564882	37.65666735	6204464.045675119	4531037.316738796	Ул. Гвоздева	Ул. Гвоздева	data.mos
54	3932	55.7585579298	37.7525362095	6207014.276112583	4544526.220265623	Метро «Ш. Энтузиастов»	Метро «Ш. Энтузиастов»	data.mos
55	3792	55.73908464	37.65331306	6204846.519407976	4530565.678344646	Метро «Таганская»	Метро «Таганская»	data.mos
56	3909	55.80218456	37.757599	6211870.770371472	4545239.048511108	Сиреневый бульв., 4	Сиреневый бульв., 4	data.mos
57	3937	55.76271149	37.77334214	6207476.6483190255	4547455.95503298	К/т «Слава»	К/т «Слава»	data.mos
58	3911	55.80217882	37.77543318	6211870.131397596	4547750.445155572	Никитинская ул.	Никитинская ул.	data.mos
59	3938	55.75935534	37.75667589	6207103.043409999	4545109.0732946275	Ул. Плеханова	Ул. Плеханова	data.mos
60	3912	55.8022689	37.78401125	6211880.159057326	4548958.61868921	3-я Парковая ул.	3-я Парковая ул.	data.mos
61	3793	55.7355263	37.65614072	6204450.406811107	4530963.26719122	Ул. Гвоздева	Ул. Гвоздева	data.mos
62	3785	55.67942535	37.66477936	6198205.277624088	4532178.0144195715	Метро «Коломенская»	Метро «Коломенская»	data.mos
63	3913	55.80239071	37.78876413	6211893.7188845	4549628.095820891	Управа района Северное Измайлово	Управа района Северное Измайлово	data.mos
64	3853	55.79540062	37.70819217	6211115.585625101	4538284.773449498	Преображенская пл.	Преображенская пл.	data.mos
65	3914	55.803099	37.79333608	6211972.565366634	4550272.128302233	7-я Парковая ул.	7-я Парковая ул.	data.mos
66	3915	55.8025205472	37.799498078	6211908.172295489	4551140.207602806	Районный центр «София»	Районный центр «София»	data.mos
67	3916	55.80258572	37.80340309	6211915.4272984	4551690.368619171	11-я Парковая ул.	11-я Парковая ул.	data.mos
68	3883	55.62376143	37.60928434	6192008.798394131	4524376.883047411	Метро «Южная»	Метро «Южная»	data.mos
69	3917	55.80268962	37.81293139	6211926.993393493	4553032.8935583625	13-я Парковая ул.	13-я Парковая ул.	data.mos
70	3888	55.80316028	37.79785239	6211979.387025029	4550908.362127177	Районный центр «София»	Районный центр «София»	data.mos
71	3918	55.80277245	37.81940145	6211936.213986915	4553944.615274356	Сиреневый бульв.	Сиреневый бульв.	data.mos
72	3889	55.80241271	37.79495385	6211896.167913297	4550500.026697928	7-я Парковая ул.	7-я Парковая ул.	data.mos
73	3922	55.82659032	37.76629688	6214587.607147096	4546463.802178671	Открытое ш., 26	Открытое ш., 26	data.mos
74	3794	55.72292752	37.6633683	6203047.91703689	4531979.584496928	Шарикоподшипниковская ул.	Шарикоподшипниковская ул.	data.mos
75	3795	55.71682013	37.66380088	6202368.045492015	4532040.415538972	13-я гор. б-ца	13-я гор. б-ца	data.mos
76	3797	55.67546205	37.68773487	6197764.085086227	4535406.656717263	Диспансер	Диспансер	data.mos
77	3799	55.67608251	37.69777275	6197833.154377485	4536818.776608502	Школа	Школа	data.mos
78	3800	55.6784418901	37.7046694386	6198095.799368804	4537789.107341312	Библиотека им. Симонова	Библиотека им. Симонова	data.mos
79	3787	55.71833839	37.66393432	6202537.057422107	4532059.18044997	13-я гор. б-ца	13-я гор. б-ца	data.mos
80	3784	55.67523615	37.69381412	6197738.938013257	4536261.857287145	Коломенская наб.	Коломенская наб.	data.mos
81	4072	55.793198	37.8051935	6210870.391088289	4551942.621817024	К/т «Первомайский»	К/т «Первомайский»	data.mos
82	4073	55.79333234	37.79989628	6210885.3457486825	4551196.307306602	Метро «Первомайская»	Метро «Первомайская»	data.mos
83	4076	55.75282419	37.80753529	6206375.999117705	4552272.56889222	Зеленый просп., 65	Зеленый просп., 65	data.mos
84	3975	55.77856544	37.66459734	6209241.501960088	4532152.4176954515	Метро «Красносельская»	Метро «Красносельская»	data.mos
85	4077	55.75204273	37.81296254	6206289.00738843	4553037.282836508	Метро «Новогиреево»	Метро «Новогиреево»	data.mos
86	4078	55.75133023	37.81815909	6206209.69225124	4553769.543219718	Метро «Новогиреево»	Метро «Новогиреево»	data.mos
87	3976	55.7806512	37.66896911	6209473.687701205	4532767.219085614	Краснопрудная ул.	Краснопрудная ул.	data.mos
88	4079	55.79073797	37.66054062	6210596.541801354	4531581.954131008	Ф-ка «Буревестник»	Ф-ка «Буревестник»	data.mos
89	4083	55.74758664	37.66871308	6205792.9577187	4532731.212624987	Костомаровский мост	Костомаровский мост	data.mos
90	3977	55.78229457	37.67203621	6209656.62681279	4533198.566537084	Леснорядская ул.	Леснорядская ул.	data.mos
91	4084	55.75108511	37.6655924	6206182.405617656	4532292.349657873	Д/к Метростроя	Д/к Метростроя	data.mos
92	3978	55.79499915	37.70972651	6211070.894189131	4538500.67020623	Преображенская пл.	Преображенская пл.	data.mos
93	4086	55.76417304	37.65717878	6207639.347320794	4531109.229514097	Пл. Земляной Вал	Пл. Земляной Вал	data.mos
94	4087	55.76553704	37.661022	6207791.187106236	4531649.645058073	Сад им. Баумана	Сад им. Баумана	data.mos
95	4088	55.76697306	37.6648434	6207951.044121405	4532187.020116364	Сервисный центр «Московский Транспорт» - Ул. Александра Лукьянова	Сервисный центр «Московский Транспорт» - Ул. Александра Лукьянова	data.mos
96	3980	55.804173	37.75783557	6212092.122499745	4545272.35816864	37-й квартал Измайлова	37-й квартал Измайлова	data.mos
97	4089	55.76932953	37.66947005	6208213.365161875	4532837.668518785	Пл. Разгуляй	Пл. Разгуляй	data.mos
98	4090	55.77536176	37.65733149	6208884.869933823	4531130.702343284	Метро «Комсомольская»	Метро «Комсомольская»	data.mos
99	3983	55.8089984790781	37.7780689963314	6212629.292373553	4548121.670330376	Монтажная ул.	Монтажная ул.	data.mos
100	4092	55.7869912	37.67282824	6210179.4532728335	4533309.958081324	Ул. Шумкина, 26	Ул. Шумкина, 26	data.mos
101	4093	55.78822453	37.66983643	6210316.7469404135	4532889.194478282	Москва - 2 - тов.	Москва - 2 - тов.	data.mos
102	3991	55.81484581	37.82896334	6213280.214274279	4555292.165309118	Хабаровская ул., 4	Хабаровская ул., 4	data.mos
103	4094	55.78899652	37.66455016	6210402.684474112	4532145.782976303	Ул. Лобачика	Ул. Лобачика	data.mos
104	3992	55.81692733	37.8272529	6213511.928020755	4555051.101451093	Байкальская ул.	Байкальская ул.	data.mos
105	4096	55.82475485	37.82475659	6214383.283561328	4554699.289655821	Хабаровская ул., 20	Хабаровская ул., 20	data.mos
106	4016	55.78555024	37.67574847	6210019.046339381	4533720.671142968	Маленковская ул.	Маленковская ул.	data.mos
107	4001	55.80780154	37.8180954	6212496.0497248685	4553760.568171812	15-я Парковая ул.	15-я Парковая ул.	data.mos
108	3961	55.64342003	37.6382478	6194197.183735839	4528447.652181641	2-й Котляковский переулок	2-й Котляковский переулок	data.mos
109	4018	55.76921469	37.66865041	6208200.581231552	4532722.3991264	Пл. Разгуляй	Пл. Разгуляй	data.mos
110	4002	55.81054678	37.81670981	6212801.648443774	4553565.315941425	Щелковское ш.	Щелковское ш.	data.mos
111	4019	55.76682881	37.66379647	6207934.986284859	4532039.79538624	Сервисный центр «Московский Транспорт» - Улица Александра Лукьянова	Сервисный центр «Московский Транспорт» - Улица Александра Лукьянова	data.mos
112	3962	55.64470544	37.64083026	6194340.2749225	4528810.689943397	Котляковская улица	Котляковская улица	data.mos
113	4004	55.8085393252393	37.7748392791268	6212578.179602022	4547666.802704069	Монтажная ул.	Монтажная ул.	data.mos
114	4020	55.76536253	37.65978591	6207771.760741898	4531475.8288365295	Сад им. Баумана	Сад им. Баумана	data.mos
115	3965	55.81460781	37.8280948	6213253.72023547	4555169.755404267	Хабаровская ул., 4	Хабаровская ул., 4	data.mos
116	3945	55.82058032	37.7507949	6213918.577007428	4544281.059514217	Тагильская ул.	Тагильская ул.	data.mos
117	4022	55.75172265	37.6646009	6206253.376245816	4532152.918323012	Д/к Метростроя	Д/к Метростроя	data.mos
118	4056	55.66804404	37.64823199	6196938.315990327	4529851.282275993	Ул. Акад. Миллионщикова, 23	Ул. Акад. Миллионщикова, 23	data.mos
119	3946	55.82273816	37.75508015	6214158.7866574405	4544884.394631	Консультативно-диагностический центр	Консультативно-диагностический центр	data.mos
120	4023	55.74743967	37.66818615	6205776.597093139	4532657.108870658	Костомаровский мост	Костомаровский мост	data.mos
121	4057	55.670338051	37.6494295343	6197193.684126722	4530019.652042856	Ул. Акад. Миллионщикова, 13	Ул. Акад. Миллионщикова, 13	data.mos
122	3948	55.82717052	37.76365738	6214652.1947156545	4546092.1173886955	Детские ясли-сад	Детские ясли-сад	data.mos
123	4026	55.6771319	37.56431892	6197949.971937928	4518060.202899227	Метро «Профсоюзная»	Метро «Профсоюзная»	data.mos
124	4059	55.67481981	37.65477804	6197692.59125646	4530771.662926901	Улица Академика Миллионщикова	Улица Академика Миллионщикова	data.mos
125	4006	55.80529262	37.76185647	6212216.7580280285	4545838.527405016	Сиреневый сад	Сиреневый сад	data.mos
126	4031	55.66031803	37.58869032	6196078.260491264	4521483.389912647	Болотниковская ул., 35	Болотниковская ул., 35	data.mos
127	4060	55.6729802	37.65800635	6197487.806808002	4531225.596156844	Школа самбо	Школа самбо	data.mos
128	3972	55.80996747	37.78398802	6212737.1599495625	4548955.346683345	3-я Парковая ул.	3-я Парковая ул.	data.mos
129	4008	55.80528901	37.76433166	6212216.356164666	4546187.065784415	Сиреневый сад	Сиреневый сад	data.mos
130	4032	55.65775304	37.59538996	6195792.727110574	4522424.6122864	МФЦ Зюзино	МФЦ Зюзино	data.mos
131	4061	55.67202048	37.66186731	6197380.971266298	4531768.512333099	Проспект Андропова, 42	Проспект Андропова, 42	data.mos
132	4062	55.6692614	37.66124841	6197073.8318856405	4531681.48264139	Коломенский проезд - Музей «Коломенское»	Коломенский проезд - Музей «Коломенское»	data.mos
133	4033	55.65598083	37.59810619	6195595.445595795	4522806.235507143	Поликлиника	Поликлиника	data.mos
134	4063	55.6723714	37.66319533	6197420.035502007	4531955.260897999	Проспект Андропова, 42	Проспект Андропова, 42	data.mos
135	4035	55.64763684	37.59836188	6194666.596877811	4522842.160001756	Азовская ул., 35	Азовская ул., 35	data.mos
136	4066	55.75344912	37.79868348	6206445.566007086	4551025.445920651	Новогиреевская ул., 37	Новогиреевская ул., 37	data.mos
137	4036	55.64387078	37.5944741	6194247.360996314	4522295.939488834	Школа № 536	Школа № 536	data.mos
138	4067	55.75833973	37.78840046	6206989.986221955	4549576.868779845	Ул. Металлургов	Ул. Металлургов	data.mos
139	4037	55.63935559	37.60230792	6193744.73234468	4523396.595042841	Чертановский пруд	Чертановский пруд	data.mos
140	4014	55.78780647	37.67022664	6210270.208714093	4532944.072056601	Москва - 2 - тов.	Москва - 2 - тов.	data.mos
141	4038	55.64370888	37.59475958	6194229.338370754	4522336.047534453	Школа № 536	Школа № 536	data.mos
142	4015	55.78723151	37.67455039	6210206.204459666	4533552.166328215	Ул. Шумкина, 26	Ул. Шумкина, 26	data.mos
143	4070	55.79339619	37.80597939	6210892.45349817	4552053.348814468	К/т «Первомайский»	К/т «Первомайский»	data.mos
144	4039	55.64755338	37.59862932	6194657.306153109	4522879.735505742	Азовская ул., 35	Азовская ул., 35	data.mos
145	3944	55.81762039	37.74323141	6213589.079107044	4543216.254940379	Плодоовощной комбинат	Плодоовощной комбинат	data.mos
146	4040	55.65176343	37.59856808	6195125.966775324	4522871.131231689	Метро «Севастопольская»	Метро «Севастопольская»	data.mos
147	4238	55.67848646	37.5949708	6198100.760867377	4522365.72264188	Ул. Ремизова	Ул. Ремизова	data.mos
148	4248	55.6750160666	37.5906384884	6197714.438441237	4521757.076431904	К/т «Таллин»	К/т «Таллин»	data.mos
149	4042	55.65705717	37.59772679	6195715.263216516	4522752.929961023	Поликлиника	Поликлиника	data.mos
150	4250	55.66249636	37.59804639	6196320.751077644	4522797.833613351	Одесская ул.	Одесская ул.	data.mos
151	4043	55.65891864	37.59299848	6195922.481109044	4522088.62712382	Одесская ул.	Одесская ул.	data.mos
152	4251	55.64498635	37.60024228	6194371.545680659	4523106.360359156	Черноморский бульв., 17	Черноморский бульв., 17	data.mos
153	4050	55.67315429	37.65796175	6197507.186418154	4531219.32480864	Школа самбо	Школа самбо	data.mos
154	4051	55.6707452857	37.6545296554	6197239.017286159	4530736.738342808	Интернат	Интернат	data.mos
155	4252	55.64468747	37.60626059	6194338.274511251	4523951.991110095	Симферопольский бульв.	Симферопольский бульв.	data.mos
156	4052	55.66809569	37.65542903	6196944.065642027	4530863.197155228	Коломенский пр.	Коломенский пр.	data.mos
157	4116	55.82429743	37.82515812	6214332.36379985	4554755.877573681	Хабаровская ул., 20	Хабаровская ул., 20	data.mos
158	13454	55.75738405	37.59379993	6206883.600410993	4522201.2236882	Ножовый пер.	Ножовый пер.	data.mos
159	4121	55.8230278	37.80240199	6214191.029234755	4551549.3250012435	Уральская ул., 23	Уральская ул., 23	data.mos
160	4053	55.66565411	37.64661639	6196672.270199696	4529624.139911561	Электромеханический колледж	Электромеханический колледж	data.mos
161	4125	55.79891014	37.79900687	6211506.263604429	4551071.005395379	Верхняя Первомайская ул.	Верхняя Первомайская ул.	data.mos
162	4054	55.664438199	37.6405731274	6196536.915606326	4528774.542121372	Больница им. Юдина	Больница им. Юдина	data.mos
163	4126	55.79702218	37.79321497	6211296.096858591	4550255.0675025545	7-я Парковая ул.	7-я Парковая ул.	data.mos
164	4055	55.6661783707	37.6497491494	6196730.630633864	4530064.5890606595	Коломенский пр., 8	Коломенский пр., 8	data.mos
165	4128	55.7969154	37.78390659	6211284.210163364	4548943.8770643575	3-я Парковая ул.	3-я Парковая ул.	data.mos
166	4129	55.795555045055	37.7824338238505	6211132.776143589	4548736.436452965	1-я Прядильная ул.	1-я Прядильная ул.	data.mos
167	4130	55.79231927	37.78310985	6210772.571312144	4548831.654911075	Первомайская ул.	Первомайская ул.	data.mos
168	4131	55.79627069	37.7846629	6211212.441374455	4549050.405704191	3-я Парковая ул.	3-я Парковая ул.	data.mos
169	4132	55.7963304	37.78855985	6211219.08826125	4549599.320636711	5-я Парковая ул.	5-я Парковая ул.	data.mos
170	4133	55.79641061	37.79444659	6211228.017197607	4550428.56746143	7-я Парковая ул.	7-я Парковая ул.	data.mos
171	4166	55.77396007	37.67832873	6208728.834516773	4534083.582888419	Бакунинская улица	Бакунинская улица	data.mos
172	4134	55.79760594	37.79940346	6211361.080724536	4551126.877624386	Измайловский бульв.	Измайловский бульв.	data.mos
173	4102	55.82086349	37.79812225	6213950.099347636	4550946.379805744	Уральская ул., 19	Уральская ул., 19	data.mos
174	4135	55.79958172	37.79934385	6211581.023548056	4551118.479653766	Верхняя Первомайская ул.	Верхняя Первомайская ул.	data.mos
175	4142	55.8004352	37.81877639	6211676.032507058	4553856.53211324	15-я Парковая ул., 24	15-я Парковая ул., 24	data.mos
176	4143	55.79734079	37.81755038	6211331.564361553	4553683.765527103	Управа района Восточное Измайлово	Управа района Восточное Измайлово	data.mos
177	4144	55.7973014523	37.8135029913	6211327.18530882	4553113.436938053	Моск. театр Теней	Моск. театр Теней	data.mos
178	4171	55.77916302	37.64603024	6209308.024261395	4529541.73243226	Пантелеевская ул.	Пантелеевская ул.	data.mos
179	4147	55.79318347	37.78309673	6210868.773616089	4548829.8069473915	Первомайская ул.	Первомайская ул.	data.mos
180	4173	55.7804434	37.6345373	6209450.555511018	4527926.058596567	Метро «Проспект Мира»	Метро «Проспект Мира»	data.mos
181	4148	55.7948361950067	37.782805661588	6211052.754122256	4548788.809786747	1-я Прядильная ул.	1-я Прядильная ул.	data.mos
182	4174	55.77835742	37.62946014	6209218.345279613	4527212.392647578	Ул. Щепкина	Ул. Щепкина	data.mos
183	4149	55.7965311	37.79992668	6211241.430083053	4551200.590147831	Измайловский бульв.	Измайловский бульв.	data.mos
184	4150	55.79659681	37.80616127	6211248.744886792	4552078.974739536	11-я Парковая ул.	11-я Парковая ул.	data.mos
185	4179	55.78262541	37.61100272	6209693.455753123	4524618.354426816	Ул. Достоевского	Ул. Достоевского	data.mos
186	4182	55.78114054	37.6091626	6209528.160780829	4524359.776026802	Селезневская ул.	Селезневская ул.	data.mos
187	4151	55.79667511	37.81316609	6211257.461202921	4553065.964665939	Моск. театр Теней	Моск. театр Теней	data.mos
188	4183	55.77980706	37.61136832	6209379.7184662465	4524669.730241942	Никоновский пер.	Никоновский пер.	data.mos
189	4152	55.79673513	37.81784216	6211264.142598759	4553724.882251688	Управа района Восточное Измайлово	Управа района Восточное Измайлово	data.mos
190	4186	55.7782049	37.62877386	6209201.366830877	4527115.930122028	Ул. Щепкина	Ул. Щепкина	data.mos
191	4154	55.80121452	37.81904181	6211762.786012623	4553893.934883647	15-я Парковая ул., 26	15-я Парковая ул., 26	data.mos
192	4192	55.7768794068	37.6727171901	6209053.813602803	4533294.339889325	Поликлиника	Поликлиника	data.mos
193	4156	55.79710521	37.79840516	6211305.339715911	4550986.236107847	Театр Мимики и Жеста	Театр Мимики и Жеста	data.mos
194	4196	55.76671146	37.67976962	6207921.922942614	4534286.248540748	Денисовский пер.	Денисовский пер.	data.mos
195	4214	55.8161096	37.7785018	6213420.898733548	4548182.627139189	Ул. Бирюсинка	Ул. Бирюсинка	data.mos
196	4197	55.7641647602	37.6801475785	6207638.425617674	4534339.410228976	МГТУ им. Баумана	МГТУ им. Баумана	data.mos
197	4215	55.81127219	37.77308169	6212882.40071559	4547419.275326846	10-й автобусный парк	10-й автобусный парк	data.mos
198	4161	55.76297392	37.68229047	6207505.8618929945	4534640.823387876	Лефортовская наб.	Лефортовская наб.	data.mos
199	4162	55.76497022	37.68034464	6207728.088992465	4534367.127988006	МГТУ им. Баумана	МГТУ им. Баумана	data.mos
200	4216	55.80853881	37.76280331	6212578.122245845	4545971.853198017	Тарный з-д	Тарный з-д	data.mos
201	4163	55.76595064	37.68013782	6207837.228847628	4534338.037645421	Денисовский пер.	Денисовский пер.	data.mos
202	4202	55.81980488	37.82596886	6213832.255421487	4554870.1366959	Алтайская ул.	Алтайская ул.	data.mos
203	4220	55.8116184	37.77502795	6212920.940636498	4547693.3742277445	10-й автобусный парк	10-й автобусный парк	data.mos
204	4164	55.76965194	37.67945903	6208249.255678901	4534242.562760105	Аптекарский пер.	Аптекарский пер.	data.mos
205	4221	55.81923428	37.78159379	6213768.736520041	4548618.118681177	2-й Иртышский пр.	2-й Иртышский пр.	data.mos
206	4203	55.81751074	37.82276064	6213576.872924879	4554418.003525046	Детская стоматологическая п-ка № 38	Детская стоматологическая п-ка № 38	data.mos
207	4222	55.81992659	37.78479557	6213845.804116711	4549069.092802929	Черницынский пр.	Черницынский пр.	data.mos
208	4204	55.81736083	37.81704597	6213560.185020014	4553612.686031582	Гольяново	Гольяново	data.mos
209	4205	55.81727982	37.81441317	6213551.167028065	4553241.689977882	Церковь Зосимы и Савватия	Церковь Зосимы и Савватия	data.mos
210	4223	55.81662697	37.78634635	6213478.4920985	4549287.528840029	Иркутская ул.	Иркутская ул.	data.mos
211	4285	55.76604085	37.83249816	6207847.270978893	4555790.369066285	Саянская ул.	Саянская ул.	data.mos
212	4206	55.81652185	37.8116158	6213466.7901936285	4552847.518348994	Аптека	Аптека	data.mos
213	4286	55.76415921	37.83240047	6207637.807772237	4555776.600144904	МФЦ Ивановское	МФЦ Ивановское	data.mos
214	4224	55.81667197	37.79394307	6213483.501475586	4550357.635575164	Байкальская ул., 16	Байкальская ул., 16	data.mos
215	4287	55.76106471	37.83221243	6207293.329607977	4555750.096890086	Ул. Молостовых, 8	Ул. Молостовых, 8	data.mos
216	4207	55.8130596	37.81194702	6213081.374286629	4552894.189095612	Муз. школа	Муз. школа	data.mos
217	4225	55.81673417	37.79980077	6213490.425547913	4551182.851588931	Черницыно	Черницыно	data.mos
218	4289	55.75490527	37.83183005	6206607.663883605	4555696.20263673	Предприятие № 12 Всероссийского Общества Слепых	Предприятие № 12 Всероссийского Общества Слепых	data.mos
219	4227	55.81700232	37.81222646	6213520.2758693695	4552933.563914062	Аптека	Аптека	data.mos
220	4211	55.81795324	37.78556924	6213626.131799555	4549178.067976909	Иркутская ул.	Иркутская ул.	data.mos
221	4290	55.7499653	37.82892338	6206057.748938671	4555286.533412762	Ул. Молостовых	Ул. Молостовых	data.mos
222	4228	55.81718225	37.81759516	6213540.305585348	4553690.075774023	Гольяново	Гольяново	data.mos
223	4229	55.8173538	37.82349092	6213559.402443994	4554520.919867731	Детская стоматологическая п-ка № 38	Детская стоматологическая п-ка № 38	data.mos
224	4212	55.81969467	37.78553429	6213819.986900407	4549173.145075199	Черницынский пр.	Черницынский пр.	data.mos
225	4291	55.75079307	37.82332277	6206149.895873565	4554497.222862574	Зеленый просп., 85	Зеленый просп., 85	data.mos
226	4331	55.754284258	37.8396268903	6206538.533143988	4556795.177486887	Ул. Сталеваров, 22	Ул. Сталеваров, 22	data.mos
227	4213	55.81927079	37.78051863	6213772.800794649	4548466.685631924	2-й Иртышский пр.	2-й Иртышский пр.	data.mos
228	4292	55.75147337	37.81912868	6206225.626523151	4553906.1765625635	Метро «Новогиреево»	Метро «Новогиреево»	data.mos
229	4232	55.64545211	37.60687417	6194423.393846691	4524038.208876458	Симферопольский бульв.	Симферопольский бульв.	data.mos
230	4293	55.74979124	37.81608473	6206038.372668103	4553477.233173767	Метро «Новогиреево»	Метро «Новогиреево»	data.mos
231	4233	55.64545858	37.60229543	6194424.114083796	4523394.840099471	Черноморский бульв., 17	Черноморский бульв., 17	data.mos
232	4234	55.65906829	37.59422472	6195939.14007084	4522260.903379576	Болотниковская ул.	Болотниковская ул.	data.mos
233	4304	55.71655708	37.81905841	6202338.762899961	4553896.274146605	Метро «Выхино»	Метро «Выхино»	data.mos
234	4316	55.75036977	37.82471367	6206102.774333112	4554693.2409269065	Зеленый просп., 85	Зеленый просп., 85	data.mos
235	4235	55.66400331	37.60012953	6196488.503984295	4523090.518546688	Одесская ул.	Одесская ул.	data.mos
236	4237	55.6754811223	37.5916673067	6197766.208204951	4521901.611848295	К/т «Таллин»	К/т «Таллин»	data.mos
237	4317	55.74958724	37.83001594	6206015.663491982	4555440.518111758	Ул. Молостовых	Ул. Молостовых	data.mos
238	4400	55.75011322	37.80043469	6206074.215317749	4551272.160348572	К/т «Березка»	К/т «Березка»	data.mos
239	4318	55.7513491374	37.8319895728	6206211.79701338	4555718.686420438	Ул. Молостовых, 19	Ул. Молостовых, 19	data.mos
240	4402	55.7587087297	37.7953382971	6207031.063080661	4550554.185239966	Федеративный просп.	Федеративный просп.	data.mos
241	4319	55.75574718	37.8323246	6206701.3848760985	4555765.906656966	Предприятие № 12 Всероссийского Общества Слепых	Предприятие № 12 Всероссийского Общества Слепых	data.mos
242	4321	55.7619913235	37.8326397454	6207396.479750959	4555810.3248591265	Ул. Молостовых, 8	Ул. Молостовых, 8	data.mos
243	4403	55.76040476	37.79418271	6207219.864310028	4550391.394088965	Новогиреевская ул.	Новогиреевская ул.	data.mos
244	4323	55.76695018	37.8334824	6207948.497131457	4555929.093833902	Саянская ул.	Саянская ул.	data.mos
245	4404	55.76430045	37.79127315	6207653.530537116	4549981.526593103	Клинический научный центр	Клинический научный центр	data.mos
246	4406	55.76269709	37.77385258	6207475.045318359	4547527.841716819	К/т «Слава»	К/т «Слава»	data.mos
247	4326	55.76224856	37.83979366	6207425.115187152	4556818.685163348	Ул. Сталеваров, 10	Ул. Сталеваров, 10	data.mos
248	4327	55.75716562	37.83952646	6206859.28489462	4556781.020966112	Школа	Школа	data.mos
249	4328	55.75374963	37.83931311	6206479.0186272655	4556750.947499404	Ул. Сталеваров, 22	Ул. Сталеваров, 22	data.mos
250	4332	55.75736909	37.83982464	6206881.935071412	4556823.052076479	Школа	Школа	data.mos
251	4333	55.7627653714	37.8401161901	6207482.646369036	4556864.148808047	Ул. Сталеваров, 10	Ул. Сталеваров, 10	data.mos
252	4335	55.76755711	37.83568914	6208016.060270003	4556240.131908201	Ивановское	Ивановское	data.mos
253	4342	55.7229034269	37.8255435989	6203045.235005266	4554810.203687902	Пл. Амилкара Кабрала	Пл. Амилкара Кабрала	data.mos
254	4344	55.71650222	37.81923996	6202332.655912696	4553921.858108075	Метро «Выхино»	Метро «Выхино»	data.mos
255	4345	55.7237154306	37.8269367517	6203135.626843673	4555006.5451484	Пл. Амилкара Кабрала	Пл. Амилкара Кабрала	data.mos
256	4357	55.74350971	37.82061696	6205339.1159471	4554115.906507276	Платф. Новогиреево	Платф. Новогиреево	data.mos
257	4358	55.74404603	37.82180223	6205398.818816403	4554282.938996946	Платф. Новогиреево	Платф. Новогиреево	data.mos
258	4359	55.74473469	37.82587748	6205475.4800969325	4554857.2582768295	Кетчерская ул., 8	Кетчерская ул., 8	data.mos
259	4360	55.74405964	37.83004246	6205400.333874674	4555444.255851732	Кетчерская ул.	Кетчерская ул.	data.mos
260	4361	55.74156549	37.83061934	6205122.686366711	4555525.561894427	Ул. Старый Гай, 1	Ул. Старый Гай, 1	data.mos
261	4362	55.7379281093	37.8282655371	6204717.774999366	4555193.818560072	Поликлиника	Поликлиника	data.mos
262	4363	55.75781587	37.82638181	6206931.670393508	4554928.335003271	Ивановский парк	Ивановский парк	data.mos
263	4367	55.75741327	37.82807024	6206886.853166515	4555166.29399884	Ивановский парк	Ивановский парк	data.mos
264	4369	55.70897751	37.66235117	6201495.009027129	4531836.553211122	Автозаводская ул.	Автозаводская ул.	data.mos
265	4493	55.74615652	37.82438457	6205633.757488527	4554646.860878712	Фрязевская ул.	Фрязевская ул.	data.mos
266	4374	55.65717943	37.61919317	6195728.87313746	4525769.375172747	Болотниковская ул.	Болотниковская ул.	data.mos
267	4387	55.75073036	37.83159055	6206142.915028297	4555662.446636728	Ул. Молостовых	Ул. Молостовых	data.mos
268	4528	55.75210611	37.81347949	6206296.062817756	4553110.1253970275	Метро «Новогиреево»	Метро «Новогиреево»	data.mos
269	4529	55.75287053	37.80808672	6206381.157662909	4552350.2642790135	Зелёный проспект, 65	Зелёный проспект, 65	data.mos
270	4439	55.74373536	37.81205437	6205364.235190199	4552909.3153546825	Платф. Новогиреево	Платф. Новогиреево	data.mos
271	4530	55.75348724	37.80371464	6206449.809506075	4551734.262865157	Мартеновская ул.	Мартеновская ул.	data.mos
272	4442	55.7463667929	37.8266680966	6205657.164960682	4554968.6824411675	Фрязевская ул.	Фрязевская ул.	data.mos
273	4457	55.75390004	37.7534124	6206495.762191875	4544649.582207205	Ж.д. переезд	Ж.д. переезд	data.mos
274	4532	55.74469546	37.81673633	6205471.11303331	4553569.053007573	Платф. Новогиреево	Платф. Новогиреево	data.mos
275	4458	55.7566159458	37.7517565094	6206798.095442574	4544416.444775126	Метро «Ш. Энтузиастов»	Метро «Ш. Энтузиастов»	data.mos
276	4533	55.76760207	37.83811803	6208021.065194309	4556582.492587446	Ивановское	Ивановское	data.mos
277	4535	55.77465731	37.83538282	6208806.450918534	4556196.955815812	Ул. Сталеваров	Ул. Сталеваров	data.mos
278	4542	55.7736033445	37.8318702945	6208689.124015761	4555701.874853504	Ш. Энтузиастов, 98	Ш. Энтузиастов, 98	data.mos
279	4546	55.74430657	37.81717749	6205427.821996534	4553631.219271683	Платф. Новогиреево	Платф. Новогиреево	data.mos
280	4488	55.74474194	37.79936283	6205476.287163241	4551121.153591671	Ул. Новотетерки	Ул. Новотетерки	data.mos
281	4547	55.74484875	37.81422392	6205488.177198053	4553215.022680246	Свободный просп.	Свободный просп.	data.mos
282	4427	55.74790415	37.80532883	6205828.302770222	4551961.688885651	Центр госуслуг	Центр госуслуг	data.mos
283	4421	55.76499617	37.79029256	6207730.977733252	4549843.395264817	Клинический научный центр	Клинический научный центр	data.mos
284	4731	55.78847645	37.74993978	6210344.790546534	4544160.668404128	Метро «Партизанская»	Метро «Партизанская»	data.mos
285	4589	55.74614198	37.77569544	6205632.138903131	4547787.380942903	Центр физической культуры и спорта	Центр физической культуры и спорта	data.mos
286	4710	55.81812993	37.76811245	6213645.800840382	4546719.47184333	Тарная ф-ка	Тарная ф-ка	data.mos
287	4591	55.74539955	37.78883106	6205549.491973582	4549637.523697392	2-я Владимирская ул.	2-я Владимирская ул.	data.mos
288	4712	55.8246228961	37.7587587002	6214368.594520373	4545402.338266883	Монтажная ул.	Монтажная ул.	data.mos
289	4593	55.77697737	37.7626867	6209064.718816343	4545955.433097497	Главная ал.	Главная ал.	data.mos
290	4634	55.7542742	37.77692313	6206537.41349255	4547960.286279948	Дворец творчества молодежи	Дворец творчества молодежи	data.mos
291	4713	55.82264089	37.75491258	6214147.958610572	4544860.801216659	Консультативно-диагностический центр	Консультативно-диагностический центр	data.mos
292	4594	55.77684944	37.75767325	6209050.477713886	4545249.503088436	Детский городок	Детский городок	data.mos
293	4595	55.77659044	37.74798803	6209021.645965771	4543885.88955111	Измайловский парк	Измайловский парк	data.mos
294	4656	55.82150642	37.82436525	6214021.669987852	4554644.138118408	Уссурийская ул.	Уссурийская ул.	data.mos
295	4714	55.82067214	37.75100676	6213928.798363073	4544310.887192758	Тагильская ул.	Тагильская ул.	data.mos
296	4601	55.77671297	37.75729234	6209035.285942977	4545195.870161887	Детский городок	Детский городок	data.mos
297	4715	55.8174447	37.74363445	6213569.521385707	4543272.9930434385	Плодоовощной комбинат	Плодоовощной комбинат	data.mos
298	4602	55.77685953	37.76394322	6209051.6009275485	4546132.367697415	Главная ал.	Главная ал.	data.mos
299	4717	55.82362434	37.75718729	6214257.435763793	4545181.0789502375	Консультативно-диагностический центр	Консультативно-диагностический центр	data.mos
300	4606	55.7460973	37.78056821	6205627.165148283	4548473.668777218	Перовский ЗАГС	Перовский ЗАГС	data.mos
301	4718	55.82486959	37.75983134	6214396.056359703	4545553.371899326	Монтажная ул.	Монтажная ул.	data.mos
302	4719	55.82648992	37.7629761	6214576.4306702195	4545996.184170657	Детские ясли-сад	Детские ясли-сад	data.mos
303	4720	55.82551992	37.76575738	6214468.45076415	4546387.830672288	Открытое ш., 26	Открытое ш., 26	data.mos
304	4664	55.81696838	37.80225678	6213516.4976858515	4551528.866720529	Детская п-ка	Детская п-ка	data.mos
305	4607	55.74567351	37.77425666	6205579.98906128	4547584.74977821	Центр физической культуры и спорта	Центр физической культуры и спорта	data.mos
306	4721	55.82075006	37.76359563	6213937.472377796	4546083.422137075	Ул. Николая Химушина	Ул. Николая Химушина	data.mos
307	4665	55.81708411	37.80661373	6213529.380690522	4552142.72422191	Аптека	Аптека	data.mos
308	4608	55.74280075	37.77250072	6205260.194880908	4547337.456599186	К/т «Владивосток»	К/т «Владивосток»	data.mos
309	4723	55.81768032	37.76835511	6213595.750484128	4546753.64384672	Тарная ф-ка	Тарная ф-ка	data.mos
310	4609	55.739465	37.77111137	6204888.860889494	4547141.795317725	Перовский парк	Перовский парк	data.mos
311	4666	55.8112753622381	37.8182055600737	6212882.75384752	4553776.091680213	15-я Парковая ул.	15-я Парковая ул.	data.mos
312	4610	55.82291392	37.80439218	6214178.3521711435	4551829.722042079	Уральская ул., 23	Уральская ул., 23	data.mos
313	4726	55.81048327	37.78142986	6212794.578542913	4548595.029491861	Щелковское ш.	Щелковское ш.	data.mos
314	4667	55.8121678975287	37.8287043596443	6212982.110421585	4555255.665099984	Щелковское ш.	Щелковское ш.	data.mos
315	4611	55.75350863	37.80291418	6206452.190629983	4551621.48651514	Мартеновская ул.	Мартеновская ул.	data.mos
316	4668	55.8081634	37.82944791	6212536.331795807	4555360.460046788	16-я Парковая ул., 45	16-я Парковая ул., 45	data.mos
317	4612	55.75315968	37.79797218	6206413.345693672	4550925.238037241	Новогиреевская ул., 37	Новогиреевская ул., 37	data.mos
318	4614	55.75227595	37.79260527	6206314.969320072	4550169.179317266	Перово поле	Перово поле	data.mos
319	4669	55.80781735	37.82979693	6212497.809686018	4555409.650801444	16-я Парковая ул., 45	16-я Парковая ул., 45	data.mos
320	4670	55.81207354	37.82956176	6212971.606589537	4555376.505999722	Щелковское ш.	Щелковское ш.	data.mos
321	4672	55.8115583172895	37.817741032134	6212914.25225976	4553710.631610851	15-я Парковая ул.	15-я Парковая ул.	data.mos
322	4674	55.81684854	37.80419221	6213503.157158076	4551801.548010541	Детская п-ка	Детская п-ка	data.mos
323	4680	55.8131437552	37.8332468341	6213090.742400642	4555895.89157577	МКАД	МКАД	data.mos
324	4682	55.78075057	37.84187711	6209484.7495190045	4557112.370500848	Шоссе Энтузиастов	Шоссе Энтузиастов	data.mos
325	4627	55.75062621	37.77961005	6206131.321103332	4548338.716591374	Зеленый просп.	Зеленый просп.	data.mos
326	4628	55.75495024	37.77698679	6206612.669921106	4547969.25210185	Дворец творчества молодежи	Дворец творчества молодежи	data.mos
327	4683	55.74994394	37.83090364	6206055.371154347	4555565.6316538835	Ул. Молостовых	Ул. Молостовых	data.mos
328	4629	55.75692547	37.77569057	6206832.551518906	4547786.695067827	Ул. Металлургов	Ул. Металлургов	data.mos
329	4684	55.73803085	37.8162837	6204729.212041774	4553505.270829268	Вешняковская ул.	Вешняковская ул.	data.mos
330	4630	55.7601812	37.77376065	6207194.977724666	4547514.89492278	Спортклуб «Луч»	Спортклуб «Луч»	data.mos
331	4685	55.73317441	37.81173258	6204188.595613905	4552863.973278875	Музей «Кусково»	Музей «Кусково»	data.mos
332	4632	55.75948546	37.77369696	6207117.528302141	4547505.925267124	Спортклуб «Луч»	Спортклуб «Луч»	data.mos
333	4633	55.75674346	37.7753731	6206812.290258387	4547741.983715531	Ул. Металлургов	Ул. Металлургов	data.mos
334	4686	55.72907409	37.80627452	6203732.150079415	4552094.9310943475	Ул. Молдагуловой	Ул. Молдагуловой	data.mos
335	4688	55.7251132	37.80044692	6203291.225821528	4551273.883359215	Аллея Первой Маёвки	Аллея Первой Маёвки	data.mos
336	4689	55.72099377	37.79008096	6202832.652971569	4549813.588359516	Ул. Паперника, 17	Ул. Паперника, 17	data.mos
337	4692	55.71925996	37.78508655	6202639.6461252365	4549110.078614158	Театр Чихачева	Театр Чихачева	data.mos
338	4698	55.73768291	37.81643262	6204690.479538146	4553526.255789289	Вешняковская ул.	Вешняковская ул.	data.mos
339	4700	55.7746929492	37.8369056958	6208810.41825613	4556411.6083635	Ул. Сталеваров	Ул. Сталеваров	data.mos
340	4701	55.7807784	37.84272043	6209487.8475404335	4557231.248147509	Шоссе Энтузиастов	Шоссе Энтузиастов	data.mos
341	4703	55.8134710625	37.8325858814	6213127.17808261	4555802.732978432	МКАД	МКАД	data.mos
342	4709	55.81505475	37.77135854	6213303.473368686	4547176.603843593	Монтажная ул., 7	Монтажная ул., 7	data.mos
343	4587	55.7397276	37.7715805	6204918.093387777	4547207.862187691	Перовский парк	Перовский парк	data.mos
344	4758	55.73344338	37.81287911	6204218.537217343	4553025.526902443	Музей «Кусково»	Музей «Кусково»	data.mos
345	4760	55.73210046	37.83115973	6204069.044046768	4555601.725576772	15-я гор. б-ца	15-я гор. б-ца	data.mos
346	4761	55.73372735	37.83801045	6204250.148613145	4556567.328565449	Реутовская ул., 22	Реутовская ул., 22	data.mos
347	4762	55.73669397	37.83837213	6204580.391240921	4556618.309537026	Реутовская ул., 16	Реутовская ул., 16	data.mos
348	4763	55.74096658	37.83664942	6205056.01601048	4556375.4854402505	Реутовская ул., 6	Реутовская ул., 6	data.mos
349	4769	55.75691007	37.80453555	6206830.837198748	4551849.921673477	Федеративный просп., 11	Федеративный просп., 11	data.mos
350	4770	55.72286665	37.80065354	6203041.141019486	4551302.992843008	Платф. Вешняки	Платф. Вешняки	data.mos
351	4771	55.7208135	37.80611827	6202812.585406964	4552072.91626244	Ул. Красный Казанец	Ул. Красный Казанец	data.mos
352	4779	55.5898257	37.54224727	6188231.090210833	4514961.003146542	Пр. Карамзина, 13	Пр. Карамзина, 13	data.mos
353	4780	55.59053654	37.53926053	6188310.220557668	4514541.689319326	Пр. Карамзина, 9	Пр. Карамзина, 9	data.mos
354	4781	55.59119386	37.536481	6188383.393085356	4514151.4811670035	Пр. Карамзина, 5	Пр. Карамзина, 5	data.mos
355	4782	55.59334579	37.53380706	6188622.944837179	4513776.110138403	9-й мкр. Ясенева	9-й мкр. Ясенева	data.mos
356	4784	55.59710353	37.53488167	6189041.254540512	4513926.963611418	Голубинская ул., 24	Голубинская ул., 24	data.mos
357	4785	55.59809994	37.53044992	6189152.174394333	4513304.849698074	Трансагентство - Стоматология	Трансагентство - Стоматология	data.mos
358	4787	55.60319027	37.53322596	6189718.827337903	4513694.536376678	Поликлиника	Поликлиника	data.mos
359	4799	55.65259917	37.56712731	6195219.00092656	4518454.609968004	Севастопольский просп., 81	Севастопольский просп., 81	data.mos
360	4800	55.6538895	37.5685199	6195362.639805114	4518650.1892244425	Спортшкола	Спортшкола	data.mos
361	4802	55.65959931	37.57462991	6195998.252946841	4519508.339434954	Перекопская ул.	Перекопская ул.	data.mos
362	4804	55.66322712	37.57786703	6196402.098908736	4519963.021104734	Болотниковская ул.	Болотниковская ул.	data.mos
363	5041	55.80393368	37.37425242	6212065.481519209	4491401.929092862	Мякинино	Мякинино	data.mos
364	4805	55.66145926	37.57598273	6196205.301633742	4519698.352370528	Префектура ЮЗАО	Префектура ЮЗАО	data.mos
365	4806	55.65934746	37.57376166	6195970.217133085	4519386.389529566	Перекопская ул.	Перекопская ул.	data.mos
366	4904	55.78045163	37.82671353	6209451.471670426	4554975.085554009	Ул. Чечулина, 14	Ул. Чечулина, 14	data.mos
367	4905	55.77807599	37.81908654	6209187.016635318	4553900.238212087	Б. Купавенский пр.	Б. Купавенский пр.	data.mos
368	4807	55.65543625	37.56950996	6195534.823227499	4518789.238259465	Ул. Каховка	Ул. Каховка	data.mos
369	4909	55.77595594	37.81972899	6208951.013748863	4553990.772354889	Челябинская ул.	Челябинская ул.	data.mos
370	4809	55.6517437	37.56557534	6195123.770441771	4518236.651244123	Севастопольский просп., 81	Севастопольский просп., 81	data.mos
371	4910	55.77900401	37.82142089	6209290.323349165	4554229.198906922	Б. Купавенский пр.	Б. Купавенский пр.	data.mos
372	4911	55.7806228	37.82818846	6209470.526227666	4555182.955546449	Ул. Чечулина, 14	Ул. Чечулина, 14	data.mos
373	4818	55.60342665	37.53037712	6189745.141039138	4513294.630591573	Поликлиника	Поликлиника	data.mos
374	4819	55.59924352	37.52758497	6189279.477137615	4512902.697483731	Тарусская ул., 22	Тарусская ул., 22	data.mos
375	4933	55.58901459	37.54573506	6188140.7978586545	4515450.6815508865	Пр. Карамзина	Пр. Карамзина	data.mos
376	4820	55.59775956	37.53075517	6189114.283466058	4513347.698464075	Трансагентство - Стоматология	Трансагентство - Стоматология	data.mos
377	5006	55.79414659	37.79888375	6210975.9876440605	4551053.660115276	Метро «Первомайская»	Метро «Первомайская»	data.mos
378	4944	55.73594202	37.70256917	6204496.68454982	4537493.60014631	МЦД Калитники	МЦД Калитники	data.mos
379	4822	55.59281052	37.53363217	6188563.358853342	4513751.559331243	9-й мкр. Ясенева	9-й мкр. Ясенева	data.mos
380	5007	55.7930326	37.819138	6210851.978844512	4553907.489933371	Первомайская ул.	Первомайская ул.	data.mos
381	4953	55.73913859	37.66995901	6204852.525094505	4532906.433609572	Б. Андроньевская ул. - Покровский женский монастырь	Б. Андроньевская ул. - Покровский женский монастырь	data.mos
382	4823	55.5908573	37.53674205	6188345.927397535	4514188.128412397	Пр. Карамзина, 5	Пр. Карамзина, 5	data.mos
383	4824	55.59014351	37.53973971	6188266.468658201	4514608.9611344235	Пр. Карамзина, 9	Пр. Карамзина, 9	data.mos
384	5009	55.7357904	37.41184215	6204479.806288625	4496668.802964433	Дом культуры	Дом культуры	data.mos
385	4825	55.58953211	37.54237889	6188198.40792153	4514979.4819026785	Пр. Карамзина, 13	Пр. Карамзина, 13	data.mos
386	5018	55.73607064	37.41217461	6204511.002462726	4496715.39728571	Дом культуры	Дом культуры	data.mos
387	4955	55.7367708228	37.6942824197	6204588.946455483	4536327.738415847	Современный Университет	Современный Университет	data.mos
388	4842	55.72325344	37.78905658	6203084.19828533	4549669.290900675	Яснополянская ул., 7	Яснополянская ул., 7	data.mos
389	5020	55.78196425	37.3584677	6209619.855758591	4489191.044694648	Советская ул.	Советская ул.	data.mos
390	5023	55.72909593	37.41172655	6203734.581297095	4496652.601654709	Партизанская ул.	Партизанская ул.	data.mos
391	5024	55.72771574	37.41759744	6203580.939249096	4497475.43696223	МЦД Рабочий Посёлок	МЦД Рабочий Посёлок	data.mos
392	4968	55.77978067	37.81979395	6209376.780744884	4553999.926570933	Б. Купавенский пр.	Б. Купавенский пр.	data.mos
393	4743	55.74059301	37.83670783	6205014.4303883035	4556383.718512267	Реутовская ул., 6	Реутовская ул., 6	data.mos
394	4969	55.78947034	37.81953119	6210455.42987524	4553962.898267592	Площадь Мазурина	Площадь Мазурина	data.mos
395	5025	55.74753454	37.40651389	6205787.15797323	4495922.07470117	Ул. Акад. Павлова, 26	Ул. Акад. Павлова, 26	data.mos
396	4744	55.73627819	37.83800792	6204534.10682304	4556566.971947612	Реутовская ул., 16	Реутовская ул., 16	data.mos
397	4970	55.79237921	37.81944653	6210779.243802423	4553950.967955584	Первомайская ул.	Первомайская ул.	data.mos
398	5026	55.7496397013	37.4096343366	6206021.503457184	4496359.382815724	Рублевское ш.	Рублевское ш.	data.mos
399	4971	55.79449389	37.79887351	6211014.648903213	4551052.2174941925	Метро «Первомайская»	Метро «Первомайская»	data.mos
400	4745	55.73342432	37.83768357	6204216.415467849	4556521.253078252	Реутовская ул., 22	Реутовская ул., 22	data.mos
401	5027	55.78187984	37.3588917	6209610.459280373	4489250.42611165	Советская ул.	Советская ул.	data.mos
402	4973	55.79340307	37.81714041	6210893.219376266	4553625.994112145	15-я Парковая ул.	15-я Парковая ул.	data.mos
403	4746	55.73237715	37.8289032	6204099.845036675	4555283.689278073	15-я гор. б-ца	15-я гор. б-ца	data.mos
404	4903	55.7812072672	37.8299149815	6209535.588818755	4555426.288990526	Ул. Чечулина	Ул. Чечулина	data.mos
405	4974	55.78854438	37.81844166	6210352.352479544	4553809.362425795	Площадь Мазурина	Площадь Мазурина	data.mos
406	4747	55.73273193	37.81916562	6204139.338965619	4553911.382134092	Ал. Жемчуговой, 1	Ал. Жемчуговой, 1	data.mos
407	4978	55.74971751	37.40163168	6206030.165082048	4495237.904675267	Медучилище	Медучилище	data.mos
408	5032	55.61220501	37.54020941	6190722.343604337	4514674.902477153	Ясногорская ул.	Ясногорская ул.	data.mos
409	4979	55.75117728	37.40385474	6206192.665935122	4495549.428356002	Ул. Марш. Тимошенко, 44	Ул. Марш. Тимошенко, 44	data.mos
410	5186	55.79447076	37.79995624	6211012.074083392	4551204.754649085	Метро «Первомайская»	Метро «Первомайская»	data.mos
411	5036	55.60358096	37.54356736	6189762.318749762	4515146.3383206595	Ул. Паустовского	Ул. Паустовского	data.mos
412	4981	55.7602065959	37.4025107374	6207197.804783323	4495361.088368439	Школа	Школа	data.mos
413	5187	55.79708498	37.79449719	6211303.087722613	4550435.695613053	7-я Парковая ул.	7-я Парковая ул.	data.mos
414	4982	55.7624902199	37.4049460013	6207452.016644166	4495702.353268202	Детская п-ка	Детская п-ка	data.mos
415	5188	55.79972428	37.79388797	6211596.893254664	4550349.873555468	7-я Парковая ул., 17	7-я Парковая ул., 17	data.mos
416	4983	55.77100224	37.39658597	6208399.57038732	4494530.869363466	Сосновка	Сосновка	data.mos
417	5189	55.80271561	37.79379834	6211929.886587058	4550337.247255215	Сиреневый бульв.	Сиреневый бульв.	data.mos
418	4989	55.7493424216	37.4007253398	6205988.410432356	4495110.899313522	Медучилище	Медучилище	data.mos
419	5190	55.80907399	37.78759783	6212637.698210929	4549463.810140173	5-я Парковая ул., 57	5-я Парковая ул., 57	data.mos
420	5191	55.80854082	37.78190075	6212578.345998022	4548661.353477295	3-я Парковая ул., 54	3-я Парковая ул., 54	data.mos
421	5192	55.80421331	37.78211175	6212096.60978842	4548691.072574066	3-я Парковая ул., 44	3-я Парковая ул., 44	data.mos
422	5193	55.80257919	37.78187668	6211914.700382125	4548657.963252073	Пл. Викторио Кодовильи	Пл. Викторио Кодовильи	data.mos
423	5194	55.79884243	37.78204104	6211498.726161708	4548681.113145977	Верхняя Первомайская ул.	Верхняя Первомайская ул.	data.mos
424	5195	55.79924214	37.7824016	6211543.221675372	4548731.897737028	Верхняя Первомайская ул.	Верхняя Первомайская ул.	data.mos
425	5196	55.80257795	37.78241886	6211914.5623459555	4548734.328800601	Пл. Викторио Кодовильи	Пл. Викторио Кодовильи	data.mos
426	5197	55.80462926	37.78236913	6212142.913130615	4548727.324353039	3-я Парковая ул., 44	3-я Парковая ул., 44	data.mos
427	5198	55.80892599	37.7822006	6212621.222926291	4548703.58701532	3-я Парковая ул., 54	3-я Парковая ул., 54	data.mos
428	5199	55.80876382	37.7873759	6212603.170244469	4549432.5492479	5-я Парковая ул., 57	5-я Парковая ул., 57	data.mos
429	5200	55.78798278	37.78515591	6210289.835453514	4549119.848298661	Метро «Измайловская»	Метро «Измайловская»	data.mos
430	5201	55.7883972	37.78475733	6210335.96847689	4549063.706542943	Метро «Измайловская»	Метро «Измайловская»	data.mos
431	5202	55.8023004	37.79354734	6211883.665621285	4550301.888624648	Сиреневый бульв.	Сиреневый бульв.	data.mos
432	5203	55.79859971	37.79364706	6211471.706694902	4550315.936270186	7-я Парковая ул., 17	7-я Парковая ул., 17	data.mos
433	5076	55.76068491	37.57732241	6207251.050465373	4519886.523104039	Метро «Краснопресненская»	Метро «Краснопресненская»	data.mos
434	5081	55.74860459	37.60962465	6205906.275394354	4524424.703880877	Боровицкая пл.	Боровицкая пл.	data.mos
435	5085	55.82308257	37.6414149	6214197.126203265	4528892.879375616	Метро «ВДНХ»	Метро «ВДНХ»	data.mos
436	2292	55.7166361	37.5940646	6202347.559366125	4522238.407724837	Б-ца Святителя Алексия	Б-ца Святителя Алексия	data.mos
437	2294	55.72405544	37.60501139	6203173.476516946	4523776.460804098	1-я гор. б-ца	1-я гор. б-ца	data.mos
438	2297	55.73434	37.61323346	6204318.348499179	4524931.832334359	1-й Бабьегородский пер.	1-й Бабьегородский пер.	data.mos
439	2298	55.7374524119	37.6151331132	6204664.820607026	4525198.7912126295	3-й Голутвинский пер.	3-й Голутвинский пер.	data.mos
440	2307	55.88410136	37.66197149	6220989.706834887	4531783.162191622	Ул. Грекова, 4	Ул. Грекова, 4	data.mos
441	2309	55.89342648	37.66184908	6222027.774444873	4531765.948820903	Студеный пр.	Студеный пр.	data.mos
442	2310	55.8935256428	37.6570970631	6222038.813197275	4531097.739171188	10-й кв. Медведкова	10-й кв. Медведкова	data.mos
443	2312	55.89284934	37.67075948	6221963.527513957	4533019.009015373	Студеный пр., 38	Студеный пр., 38	data.mos
444	2316	55.88370365	37.66163753	6220945.433960204	4531736.200594574	Ул. Грекова, 4	Ул. Грекова, 4	data.mos
445	2317	55.88386123	37.66827117	6220962.975685563	4532669.065453953	Храм Серафима Саровского	Храм Серафима Саровского	data.mos
446	2319	55.8871866	37.69281939	6221333.154180662	4536121.91850727	Муз. школа	Муз. школа	data.mos
447	2320	55.88706165	37.69777252	6221319.244810288	4536818.744250119	Стартовая ул., 15	Стартовая ул., 15	data.mos
448	2321	55.88699457	37.70176554	6221311.777498845	4537380.531848566	Стартовая ул., 9 - Госпиталь	Стартовая ул., 9 - Госпиталь	data.mos
449	2322	55.88651037	37.70672974	6221257.876601403	4538078.999298798	Госпиталь	Госпиталь	data.mos
450	2326	55.86534954	37.5839583	6218902.26378104	4520818.646572878	Алтуфьевское ш., 30	Алтуфьевское ш., 30	data.mos
451	2369	55.76353597	37.49120892	6207568.429012795	4507797.943994521	Филевский бульв., 2	Филевский бульв., 2	data.mos
452	2328	55.82421875	37.60217633	6214323.605182315	4523378.105626261	Ул. Кашенкин Луг	Ул. Кашенкин Луг	data.mos
453	2451	55.87136318	37.60889896	6219571.6991236545	4524322.729179192	Школа	Школа	data.mos
454	2370	55.76346119	37.48756845	6207560.104541273	4507287.20348307	Универсам	Универсам	data.mos
455	2335	55.84406965	37.5857675	6216533.397262103	4521072.793858597	Главный вход Ботанического сада	Главный вход Ботанического сада	data.mos
456	2452	55.87011061	37.60326425	6219432.263669071	4523530.967814686	Ул. Бестужевых, 13	Ул. Бестужевых, 13	data.mos
457	2371	55.76338426	37.4844193	6207551.540732847	4506845.4128927095	Филевский бульв., 12	Филевский бульв., 12	data.mos
458	2214	55.60662739	37.60703607	6190101.445786099	4524060.958524651	Поликлиника № 170	Поликлиника № 170	data.mos
459	2490	55.85732079	37.61003501	6218008.507419334	4524482.3685285635	Отрадная ул.	Отрадная ул.	data.mos
460	2453	55.867996083	37.5963304397	6219196.875600163	4522556.745651227	Ул. Бестужевых	Ул. Бестужевых	data.mos
461	2374	55.7632193	37.48534073	6207533.177469646	4506974.6773082875	Филевский бульв., 12	Филевский бульв., 12	data.mos
462	2493	55.85934069	37.60039419	6218233.361658787	4523127.704341525	Мкр. 4 «Д» Отрадного	Мкр. 4 «Д» Отрадного	data.mos
463	2456	55.87095328	37.6079638	6219526.069264378	4524191.321005877	Школа	Школа	data.mos
464	2375	55.7633467	37.49244892	6207547.359572772	4507971.915741167	Филевский бульв., 2	Филевский бульв., 2	data.mos
465	2494	55.85788534	37.59385654	6218071.3528378615	4522209.176933264	Новый Иерусалим	Новый Иерусалим	data.mos
466	2376	55.76248359	37.4979626	6207451.278607074	4508745.518895624	Ул. Мясищева	Ул. Мясищева	data.mos
467	2495	55.85680646	37.58636126	6217951.252465634	4521156.203613188	Детская п-ка	Детская п-ка	data.mos
468	2377	55.76181971	37.50265149	6207377.375823526	4509403.443892423	Новофилёвский пр.	Новофилёвский пр.	data.mos
469	2496	55.85630089	37.5861625	6217894.972670673	4521128.28228671	Детская п-ка	Детская п-ка	data.mos
470	2497	55.86009397	37.59671561	6218317.2164048115	4522610.860908706	Ул. Санникова	Ул. Санникова	data.mos
471	2361	55.88121649	37.65289198	6220668.564575482	4530506.472835777	Управа района Северное Медведково	Управа района Северное Медведково	data.mos
472	2378	55.75742551	37.50214557	6206888.215717082	4509332.453372686	Береговой пр., 4	Береговой пр., 4	data.mos
473	2498	55.86275106	37.59939225	6218613.002310604	4522986.92843783	Ул. Санникова, 17	Ул. Санникова, 17	data.mos
474	2379	55.75488872	37.50435747	6206605.821546032	4509642.829963045	Береговой пр.	Береговой пр.	data.mos
475	2499	55.86062254	37.60183172	6218376.05654806	4523329.685400904	Мкр. 4 «Д» Отрадного	Мкр. 4 «Д» Отрадного	data.mos
476	2397	55.73422024	37.61264428	6204305.016876961	4524849.036064051	1-й Бабьегородский пер.	1-й Бабьегородский пер.	data.mos
477	2364	55.75160381	37.5077067	6206240.14703753	4510112.8156338595	Б. Филевская ул.	Б. Филевская ул.	data.mos
478	2398	55.73104774	37.61188518	6203951.85579242	4524742.3622478265	Метро «Октябрьская» (радиальная)	Метро «Октябрьская» (радиальная)	data.mos
479	2365	55.7527796962	37.5042421546	6206371.046090545	4509626.64853386	Школа	Школа	data.mos
480	2501	55.85127649	37.67154627	6217335.659021131	4533129.661695381	Комбинат «Лира» - Пенсионный фонд	Комбинат «Лира» - Пенсионный фонд	data.mos
481	2400	55.72468394	37.60496098	6203243.440816909	4523769.37754647	1-я гор. б-ца	1-я гор. б-ца	data.mos
482	2366	55.7552153667	37.5050672516	6206642.183690346	4509742.42935882	Береговой пр.	Береговой пр.	data.mos
483	2502	55.85426839	37.67211586	6217668.715805636	4533209.768504068	Электротехнический завод	Электротехнический завод	data.mos
484	2401	55.72133592	37.59988743	6202870.740935344	4523056.502638468	Ул. Акад. Петровского	Ул. Акад. Петровского	data.mos
485	2367	55.75765492	37.50205453	6206913.753521465	4509319.678722385	Береговой пр., 4	Береговой пр., 4	data.mos
486	2504	55.85991037	37.67412751	6218296.778146301	4533492.690719137	Ул. Коминтерна	Ул. Коминтерна	data.mos
487	2522	55.86185117	37.61241613	6218512.827014034	4524816.974783519	Ул. Пестеля	Ул. Пестеля	data.mos
488	2402	55.71698562	37.59355962	6202386.467754546	4522167.462152981	Б-ца Святителя Алексия	Б-ца Святителя Алексия	data.mos
489	2505	55.86171826	37.67439758	6218498.031540513	4533530.674452593	Ул. Летчика Бабушкина	Ул. Летчика Бабушкина	data.mos
490	2523	55.87036515	37.63371954	6219460.598932258	4527811.107680707	Пр. Дежнева, 32	Пр. Дежнева, 32	data.mos
491	2404	55.70821658	37.57687443	6201410.302687	4519823.599697008	Ленинский просп., 34	Ленинский просп., 34	data.mos
492	2524	55.87061599	37.6365272	6219488.5223133275	4528205.7802129295	Полярная ул.	Полярная ул.	data.mos
493	2529	55.88267162	37.70617424	6220830.548906121	4538000.837619565	Таёжная ул.	Таёжная ул.	data.mos
494	2531	55.88389632	37.70781797	6220966.881886494	4538232.120500286	Челюскинская ул.	Челюскинская ул.	data.mos
495	2416	55.74598971	37.56445232	6205615.188284269	4518078.937105772	2-й Брянский пер.	2-й Брянский пер.	data.mos
496	2417	55.746457	37.55507201	6205667.206769121	4516761.682532034	Дорогомиловская Застава	Дорогомиловская Застава	data.mos
497	2422	55.73676553	37.51795934	6204588.357263682	4511551.663653004	Метро «Парк Победы»	Метро «Парк Победы»	data.mos
498	2359	55.87804895	37.64504162	6220315.955635615	4529402.74272219	Медведковский ЗАГС	Медведковский ЗАГС	data.mos
499	2532	55.8821822	37.70506826	6220776.066920936	4537845.222344909	Таёжная ул.	Таёжная ул.	data.mos
500	2360	55.8799244924436	37.6463929596594	6220524.740065398	4529592.727515203	Раево	Раево	data.mos
501	2533	55.88062191	37.70251514	6220602.376232646	4537485.99825114	Центр образования	Центр образования	data.mos
502	2437	55.87172511	37.63795971	6219611.988986957	4528407.153769922	МФЦ «Южное Медведково»	МФЦ «Южное Медведково»	data.mos
503	2441	55.86785569	37.67626446	6219181.247122891	4533793.243762214	Киноконцертный зал «Орион»	Киноконцертный зал «Орион»	data.mos
504	2543	55.86112212	37.61387748	6218431.669539271	4525022.335909045	Ул. Пестеля	Ул. Пестеля	data.mos
505	2546	55.86373863	37.62582621	6218722.938100126	4526701.622823906	Ул. Мусоргского, 11	Ул. Мусоргского, 11	data.mos
506	2552	55.74246176	37.4247012	6205222.458686723	4498471.151564462	Рублевское ш., 99	Рублевское ш., 99	data.mos
507	2553	55.74082435	37.42809514	6205040.183039304	4498946.9041970605	Рублевское ш., 91	Рублевское ш., 91	data.mos
508	2554	55.7390016	37.43187806	6204837.27543746	4499477.2083326215	Рублевское ш., 83 - Центр Лечения Слуха	Рублевское ш., 83 - Центр Лечения Слуха	data.mos
509	2566	55.73938212	37.43152939	6204879.634730098	4499428.3293226585	Рублевское ш., 83 - Центр Лечения Слуха	Рублевское ш., 83 - Центр Лечения Слуха	data.mos
510	2568	55.74284166	37.42442933	6205264.748961277	4498433.042551991	Рублевское ш., 99	Рублевское ш., 99	data.mos
511	2510	55.85974121	37.67372436	6218277.947341239	4533435.990335253	Ул. Коминтерна	Ул. Коминтерна	data.mos
512	2511	55.85655273	37.6725878	6217923.007371235	4533276.14233894	Верхоянская ул.	Верхоянская ул.	data.mos
513	2512	55.85461631	37.67184855	6217707.446082872	4533172.174103459	Электротехнический завод	Электротехнический завод	data.mos
514	2507	55.89273979	37.66218938	6221951.33246374	4531813.802089856	Студеный пр.	Студеный пр.	data.mos
515	2573	55.88620647	37.65588399	6221224.046608151	4530927.168526001	Заревый пр., 19	Заревый пр., 19	data.mos
516	2575	55.85881956	37.62138677	6218175.34973255	4526077.667808909	Ул. Мусоргского	Ул. Мусоргского	data.mos
517	2576	55.8579916	37.62394158	6218083.181646952	4526436.737039402	Отрадное	Отрадное	data.mos
518	2577	55.85343443	37.6259047	6217575.879803094	4526712.654782312	Усадьба Свиблово	Усадьба Свиблово	data.mos
519	2581	55.848052609	37.6267062638	6216976.778229834	4526825.31717052	Березовая ал.	Березовая ал.	data.mos
520	2583	55.85379903	37.62611284	6217616.466889437	4526741.909416658	Усадьба Свиблово	Усадьба Свиблово	data.mos
521	2588	55.86674174	37.61362565	6219057.242776122	4524986.946363203	Дом творчества	Дом творчества	data.mos
522	2589	55.86337797	37.6144124	6218682.789612576	4525097.50835079	Ул. Пестеля, 4	Ул. Пестеля, 4	data.mos
523	2590	55.86183177	37.61334972	6218510.667415912	4524948.17019383	Ул. Пестеля	Ул. Пестеля	data.mos
524	2591	55.86473545	37.61481081	6218833.903594938	4525153.497359366	Ул. Пестеля, 4	Ул. Пестеля, 4	data.mos
525	2592	55.8684251	37.62223691	6219244.633554144	4526197.150516309	Северный бульв.	Северный бульв.	data.mos
526	2593	55.86633642	37.62521506	6219012.122760114	4526615.724618998	Юрловский пр.	Юрловский пр.	data.mos
527	2594	55.59468022	37.59088377	6188771.492905279	4521791.535083708	Ул. Акад. Янгеля	Ул. Акад. Янгеля	data.mos
528	2595	55.59657683	37.58807507	6188982.622564712	4521396.958610658	Чертаново Южное	Чертаново Южное	data.mos
529	2596	55.5989509	37.58842431	6189246.902828219	4521446.020315602	Поликлиника	Поликлиника	data.mos
530	2597	55.60017548	37.58892945	6189383.2224502545	4521516.983469526	ОВД «Чертаново Южное»	ОВД «Чертаново Южное»	data.mos
531	2598	55.60899713	37.59102749	6190365.244036212	4521811.725796669	Чертановская ул., 44	Чертановская ул., 44	data.mos
532	2599	55.61193932	37.5917323	6190692.767128828	4521910.742617751	Чертаново Центральное	Чертаново Центральное	data.mos
533	2600	55.61623051	37.59299208	6191170.460214525	4522087.72798588	Детская стоматологическая п-ка	Детская стоматологическая п-ка	data.mos
534	2601	55.62329684	37.59548213	6191957.080471903	4522437.561702338	К/т «Ашхабад»	К/т «Ашхабад»	data.mos
535	2602	55.62849035	37.59899743	6192535.219360533	4522931.455434879	Школьный парк	Школьный парк	data.mos
536	2603	55.63118209	37.60102877	6192834.862486681	4523216.865923538	Футбольная школа Чертаново	Футбольная школа Чертаново	data.mos
537	2604	55.63372921	37.60314508	6193118.406588069	4523514.223287878	Сумской пр.	Сумской пр.	data.mos
538	2521	55.85964663	37.61936566	6218267.4187438	4525793.616909618	Ул. Мусоргского	Ул. Мусоргского	data.mos
539	2509	55.8626325120522	37.6742079869026	6218599.80561342	4533504.009300662	Ул. Летчика Бабушкина	Ул. Летчика Бабушкина	data.mos
540	2605	55.63774302	37.60526029	6193565.221873411	4523811.434546817	Верхний Чертановский пруд	Верхний Чертановский пруд	data.mos
541	2795	55.8528844	37.60732466	6217514.650743573	4524101.510352036	Отрадный пр.	Отрадный пр.	data.mos
542	2607	55.64306927	37.60569728	6194158.137311248	4523872.837705884	Балаклавский просп.	Балаклавский просп.	data.mos
543	2608	55.6451741	37.60565615	6194392.4459150545	4523867.058354749	Черноморский бульв.	Черноморский бульв.	data.mos
544	2699	55.86165333	37.56204502	6218490.803565975	4517740.869885766	Торговый центр	Торговый центр	data.mos
545	2609	55.649414335	37.6055710425	6194864.4667160995	4523855.099548298	Симферопольский бульв., 20	Симферопольский бульв., 20	data.mos
546	2610	55.65288042	37.60563747	6195250.3095333455	4523864.4335496	Метро «Каховская»	Метро «Каховская»	data.mos
547	2611	55.65634537	37.60558607	6195636.026002969	4523857.211123415	Болотниковская улица	Болотниковская улица	data.mos
548	2731	55.60232431	37.6100442	6189622.429111656	4524483.659930277	Россошанский пр.	Россошанский пр.	data.mos
549	2612	55.65841001	37.60862856	6195865.86067644	4524284.732548824	Москворецкий рынок	Москворецкий рынок	data.mos
550	2613	55.65619014	37.60520769	6195618.745878413	4523804.043541215	Болотниковская ул.	Болотниковская ул.	data.mos
551	2703	55.5990608863	37.5888243878	6189259.14644713	4521502.224065979	Поликлиника	Поликлиника	data.mos
552	2732	55.60158587	37.61465078	6189540.226346875	4525131.008126153	3-й Дорожный пр., 6	3-й Дорожный пр., 6	data.mos
553	2614	55.65352634	37.60513109	6195322.213018838	4523793.280223012	Метро «Каховская»	Метро «Каховская»	data.mos
554	2733	55.60083385	37.6194515	6189456.511863409	4525805.68088033	3-й Дорожный пр., 10	3-й Дорожный пр., 10	data.mos
555	2704	55.60054635	37.58917783	6189424.507509805	4521551.8766029	ОВД «Чертаново Южное»	ОВД «Чертаново Южное»	data.mos
556	2615	55.64911174	37.60538678	6194830.781994782	4523829.208110011	Симферопольский бульв., 20	Симферопольский бульв., 20	data.mos
557	2736	55.60056459	37.6268494	6189426.537977317	4526845.43555487	Покровский парк	Покровский парк	data.mos
558	2705	55.60298674	37.58977667	6189696.170481942	4521636.003839053	Чертановская улица, 53	Чертановская улица, 53	data.mos
559	2738	55.6058081	37.62414466	6190010.242840487	4526465.27972241	Дорожная ул., 5	Дорожная ул., 5	data.mos
560	2616	55.64561675	37.60545188	6194441.721487654	4523838.355556085	Черноморский бульв.	Черноморский бульв.	data.mos
561	2707	55.60771745	37.60167874	6190222.790710233	4523308.190663945	Сквер «Родная гавань»	Сквер «Родная гавань»	data.mos
562	2617	55.64261869	37.6055104	6194107.9789750865	4523846.578428422	Балаклавский просп.	Балаклавский просп.	data.mos
563	2710	55.60006929	37.59802895	6189371.4014335275	4522795.383296435	Техникум креативных индустрий	Техникум креативных индустрий	data.mos
564	2618	55.64014255	37.60545779	6193832.336331154	4523839.185992831	Метро «Чертановская»	Метро «Чертановская»	data.mos
565	3120	55.7606052825	37.6315085259	6207242.18637262	4527500.316108209	Метро «Лубянка»	Метро «Лубянка»	data.mos
566	2619	55.63783765	37.60508089	6193575.756036825	4523786.226461744	Верхний Чертановский пруд	Верхний Чертановский пруд	data.mos
567	2711	55.59770849	37.59688613	6189108.598379663	4522634.818540335	Кировоградская ул., 25 - Российский Государственный Гуманитарный Университет	Кировоградская ул., 25 - Российский Государственный Гуманитарный Университет	data.mos
568	2740	55.60851545	37.61731573	6190311.6236638855	4525505.523476662	17-й автобусный парк	17-й автобусный парк	data.mos
569	2653	55.71412922	37.58964424	6202068.494761043	4521617.399529403	Ул. Стасовой	Ул. Стасовой	data.mos
570	2620	55.6339017	37.60309472	6193137.608087037	4523507.147233426	Сумской пр.	Сумской пр.	data.mos
571	2744	55.60541806	37.62362178	6189966.823786298	4526391.789639741	Дорожная ул., 5	Дорожная ул., 5	data.mos
572	2717	55.60057411	37.59859273	6189427.5977388695	4522874.594577595	Техникум креативных индустрий	Техникум креативных индустрий	data.mos
573	2623	55.62534363	37.59618363	6192184.928092464	4522536.119407936	Сумская ул.	Сумская ул.	data.mos
574	2718	55.603052	37.59976893	6189703.435191911	4523039.853008745	Университет спорта и туризма	Университет спорта и туризма	data.mos
575	2745	55.60239714	37.62216659	6189630.536510171	4526187.26735818	Дорожная ул., 7	Дорожная ул., 7	data.mos
576	2625	55.61639525	37.59277378	6191188.798987439	4522057.058999065	Детская стоматологическая п-ка	Детская стоматологическая п-ка	data.mos
577	2746	55.60036715	37.62259065	6189404.559057055	4526246.867216082	Покровский парк	Покровский парк	data.mos
578	2719	55.60489526	37.6006785	6189908.625956511	4523167.6511878	Кировоградская ул., 19	Кировоградская ул., 19	data.mos
579	2626	55.61324137	37.5918762	6190837.710671816	4521930.958848788	Чертаново Центральное	Чертаново Центральное	data.mos
580	2627	55.60018892	37.58871827	6189384.718584212	4521487.316390224	ОВД «Чертаново Южное»	ОВД «Чертаново Южное»	data.mos
581	2747	55.60299094	37.63067925	6189696.638023803	4527383.751184911	МЦД Покровское	МЦД Покровское	data.mos
582	2720	55.6071374815	37.6017227493	6190158.2289121365	4523314.374267256	Сквер «Родная гавань»	Сквер «Родная гавань»	data.mos
583	2628	55.59667811	37.58788823	6188993.897002739	4521370.711170669	Чертаново Южное	Чертаново Южное	data.mos
584	2749	55.6009665438	37.6198472342	6189471.283269656	4525861.297623813	3-й Дорожный пр., 10	3-й Дорожный пр., 10	data.mos
585	2721	55.61156624	37.60112978	6190651.236053203	4523231.058390874	Метро «Пражская»	Метро «Пражская»	data.mos
586	2750	55.60184219	37.61420659	6189568.759758756	4525068.585755875	3-й Дорожный пр., 6	3-й Дорожный пр., 6	data.mos
587	2722	55.61173832	37.5912788	6190670.391911179	4521847.031540757	Чертаново Центральное	Чертаново Центральное	data.mos
588	2723	55.5998348	37.58842803	6189345.298126131	4521446.542907446	ОВД «Чертаново Южное»	ОВД «Чертаново Южное»	data.mos
589	2751	55.60250937	37.60981146	6189643.0298966225	4524450.954774348	Россошанский пр.	Россошанский пр.	data.mos
590	2724	55.59862006	37.58813659	6189210.073887886	4521405.601006301	Поликлиника	Поликлиника	data.mos
591	2760	55.8792907	37.7203647	6220454.186613307	4539997.691322072	Холмогорская ул.	Холмогорская ул.	data.mos
592	2730	55.60049249	37.6082212	6189418.511842031	4524227.490548736	Россошанский проезд, 3	Россошанский проезд, 3	data.mos
593	2764	55.82593763	37.64738744	6214514.9500286495	4529732.543677566	Ул. Бориса Галушкина	Ул. Бориса Галушкина	data.mos
594	2767	55.87484298	37.71609144	6219959.0686877165	4539396.326312116	Новый театр	Новый театр	data.mos
595	2785	55.86035695	37.60227624	6218346.491204501	4523392.143753908	Микрорайон 4 «Д» Отрадного	Микрорайон 4 «Д» Отрадного	data.mos
596	2948	55.7984803	37.61455093	6211458.414034507	4525116.976094583	6-й пр. Марьиной Рощи	6-й пр. Марьиной Рощи	data.mos
597	2949	55.7983493791	37.6093476173	6211443.839986584	4524385.774844861	1-й Стрелецкий пер.	1-й Стрелецкий пер.	data.mos
598	2950	55.79816246	37.60294091	6211423.032247554	4523485.535509003	Комбинат твёрдых сплавов	Комбинат твёрдых сплавов	data.mos
599	2951	55.79678091	37.59827331	6211269.238805048	4522829.7158855945	Ул. Двинцев	Ул. Двинцев	data.mos
600	1000504	55.79292075	37.59977296	6210839.527759467	4523040.419236224	Ул. Сущевский Вал - Больница	Ул. Сущевский Вал - Больница	data.mos
601	2817	55.61590599	37.61151717	6191134.334813373	4524690.647409699	Институт генетики	Институт генетики	data.mos
602	2821	55.61656097	37.61251761	6191207.246853453	4524831.235471564	Институт генетики	Институт генетики	data.mos
603	2826	55.59984873	37.60379737	6189346.848806638	4523605.876611102	Варшавское ш., 150	Варшавское ш., 150	data.mos
604	2828	55.5979677285	37.6203799848	6189137.456677477	4525936.171209361	Детская п-ка	Детская п-ка	data.mos
605	2831	55.59735081	37.61972562	6189068.781624196	4525844.205853037	Детская п-ка	Детская п-ка	data.mos
606	2833	55.59433415	37.60990004	6188732.9685691	4524463.40222603	МФЦ Чертаново Южное	МФЦ Чертаново Южное	data.mos
607	2834	55.59481914	37.60768844	6188786.9574089395	4524152.627883684	МФЦ Чертаново Южное	МФЦ Чертаново Южное	data.mos
608	2837	55.85164695	37.6118948	6217376.898439691	4524743.714107847	Метродепо	Метродепо	data.mos
609	2853	55.63277477	37.61776784	6193012.158813277	4525569.061510855	Центр боевых искусств	Центр боевых искусств	data.mos
610	2855	55.62777882	37.61119447	6192456.012203249	4524645.299998579	Кировоградская ул., 6	Кировоградская ул., 6	data.mos
611	2859	55.62842684	37.61191279	6192528.149459673	4524746.242170868	Кировоградская ул., 6	Кировоградская ул., 6	data.mos
612	2860	55.6315207	37.61338952	6192872.556379458	4524953.763239495	Кировоградская ул., 4	Кировоградская ул., 4	data.mos
613	2861	55.6329463	37.61520075	6193031.253445533	4525208.29635973	Кировоградская ул., 2	Кировоградская ул., 2	data.mos
614	2862	55.63244813	37.61816146	6192975.797414804	4525624.379869791	Центр боевых искусств	Центр боевых искусств	data.mos
615	2865	55.82423098	37.62210176	6214324.966619688	4526178.155803016	Хованская ул.	Хованская ул.	data.mos
616	2866	55.82447109	37.61783383	6214351.695542622	4525578.335558066	Парк «Останкино»	Парк «Останкино»	data.mos
617	2867	55.8237651065096	37.6095102293031	6214273.105819961	4524408.625301343	Центр реабилитации	Центр реабилитации	data.mos
618	2868	55.8237755	37.60464811	6214274.262818022	4523725.415368279	Телецентр	Телецентр	data.mos
619	2871	55.82353526	37.60564238	6214247.519423552	4523865.12347423	Телецентр	Телецентр	data.mos
620	2872	55.8235689731161	37.6103196172729	6214251.272350471	4524522.362326205	Центр реабилитации	Центр реабилитации	data.mos
621	2873	55.82431264	37.61752717	6214334.0569693055	4525535.238502225	Парк «Останкино»	Парк «Останкино»	data.mos
622	2874	55.82397446	37.6228194	6214296.41094391	4526279.017212205	Хованская ул.	Хованская ул.	data.mos
623	2875	55.82371711	37.62852095	6214267.762872953	4527080.381682333	Южный вход ВДНХ	Южный вход ВДНХ	data.mos
624	2889	55.87587535	37.62032261	6220073.991590427	4525928.107641286	Ясный пр.	Ясный пр.	data.mos
625	2900	55.62288696	37.59565138	6191911.452839017	4522461.3405077765	К/т «Ашхабад»	К/т «Ашхабад»	data.mos
626	2913	55.59297205	37.61510954	6188581.34029069	4525195.4784214245	Дорожная ул.	Дорожная ул.	data.mos
627	2914	55.59152513	37.61442788	6188420.269893072	4525099.683767123	Дорожная ул., 32	Дорожная ул., 32	data.mos
628	2916	55.59159669	37.61474529	6188428.235915833	4525144.289738942	Дорожная ул., 32	Дорожная ул., 32	data.mos
629	2926	55.86408974	37.66676669	6218762.023486538	4532457.488549472	Поликлиника	Поликлиника	data.mos
630	2928	55.85983603	37.66061358	6218288.502655355	4531592.2136275675	Радужная ул.	Радужная ул.	data.mos
631	2929	55.86437131	37.6635907	6218793.367715562	4532010.859185072	Печорская ул.	Печорская ул.	data.mos
632	2930	55.86379182	37.66707003	6218728.859183842	4532500.147287956	Поликлиника	Поликлиника	data.mos
633	2931	55.86321039	37.67294184	6218664.134692309	4533325.934946648	Ул. Летчика Бабушкина	Ул. Летчика Бабушкина	data.mos
634	2941	55.81572765	37.59152743	6213378.38025404	4521881.960897471	2-й Гончаровский пер.	2-й Гончаровский пер.	data.mos
635	2942	55.81312017	37.59477233	6213088.116908186	4522337.838828435	Ул. Добролюбова	Ул. Добролюбова	data.mos
636	2813	55.596297495	37.6058007427	6188951.527134751	4523887.375703788	Россошанская ул.	Россошанская ул.	data.mos
637	2995	55.81336784	37.59522127	6213115.687406471	4522400.912241423	Ул. Добролюбова	Ул. Добролюбова	data.mos
638	3105	55.785304614	37.6221421125	6209991.703378134	4526183.827158395	Дом Ветеранов войны	Дом Ветеранов войны	data.mos
639	2996	55.81582961	37.59110417	6213389.730389322	4521822.498313801	2-й Гончаровский переулок	2-й Гончаровский переулок	data.mos
640	3106	55.78063814	37.62288634	6209472.233868655	4526288.425409017	Спорткомплекс «Олимпийский»	Спорткомплекс «Олимпийский»	data.mos
641	3107	55.77984907	37.62120063	6209384.394998054	4526051.50699287	Театр зверей им. Дурова	Театр зверей им. Дурова	data.mos
642	2997	55.81506632	37.58401575	6213304.761335194	4520826.7167639965	Туб. диспансер № 18	Туб. диспансер № 18	data.mos
643	3003	55.5996462471	37.6364431153	6189324.308513315	4528193.9602170335	Ул. Подольских Курсантов, 22	Ул. Подольских Курсантов, 22	data.mos
644	3108	55.77737604	37.61795468	6209109.098557738	4525595.319495234	Самотечная ул.	Самотечная ул.	data.mos
645	3109	55.7811231576	37.6235489417	6209526.225780913	4526381.552355394	Спорткомплекс «Олимпийский»	Спорткомплекс «Олимпийский»	data.mos
646	3110	55.78635174	37.62258779	6210108.268911252	4526246.465253914	Дом Ветеранов войны	Дом Ветеранов войны	data.mos
647	3111	55.8109444258211	37.6187807605963	6212845.914174095	4525711.415401615	Калибровская ул.	Калибровская ул.	data.mos
648	2956	55.77214749	37.57170017	6208527.059034151	4519096.848999227	М. Грузинская ул.	М. Грузинская ул.	data.mos
649	3004	55.59622753	37.63585984	6188943.738666577	4528111.968122269	Покровское кладб.	Покровское кладб.	data.mos
650	3027	55.59677651	37.63653098	6189004.850840633	4528206.311577267	Покровское кладб.	Покровское кладб.	data.mos
651	2978	55.76854718	37.56541032	6208126.274358252	4518213.476096341	Ул. Климашкина	Ул. Климашкина	data.mos
652	3028	55.6000297331	37.6370160515	6189366.997979562	4528274.499551896	Ул. Подольских Курсантов, 22	Ул. Подольских Курсантов, 22	data.mos
653	2979	55.76995229	37.56618862	6208282.690487961	4518322.779767203	Б. Тишинский пер.	Б. Тишинский пер.	data.mos
654	3005	55.59245271	37.63525558	6188523.527626341	4528027.026847932	Ул. Подольских Курсантов, 26	Ул. Подольских Курсантов, 26	data.mos
655	2980	55.77213656	37.57247339	6208525.842312116	4519205.448406698	М. Грузинская ул.	М. Грузинская ул.	data.mos
656	3031	55.65628877	37.60816327	6195629.725319791	4524219.350282894	Москворецкий рынок	Москворецкий рынок	data.mos
657	1000505	55.79312083	37.60041436	6210861.800563185	4523130.538313102	Ул. Сущевский Вал - Больница	Ул. Сущевский Вал - Больница	data.mos
658	3032	55.65614802	37.6137254	6195614.057101461	4525000.96416723	Болотниковская ул., 4	Болотниковская ул., 4	data.mos
659	3006	55.58891111	37.63470718	6188129.278517748	4527949.938452956	Ступинский пр.	Ступинский пр.	data.mos
660	2985	55.79563824	37.59980657	6211142.037362504	4523045.141546485	Стрелецкая ул.	Стрелецкая ул.	data.mos
661	3033	55.65601635	37.61835633	6195599.399664109	4525651.766514948	Болотниковская ул., 1	Болотниковская ул., 1	data.mos
662	3007	55.58689302	37.6395947	6187904.625766573	4528636.995480398	Харьковская ул.	Харьковская ул.	data.mos
663	2988	55.79623015	37.61322506	6211207.928482299	4524930.651894788	Октябрьская ул.	Октябрьская ул.	data.mos
664	3034	55.65754082	37.61979733	6195769.102888238	4525854.284038569	Болотниковская ул.	Болотниковская ул.	data.mos
665	3008	55.58315972	37.64104033	6187489.036711594	4528840.221775807	Востряковский пр., 3	Востряковский пр., 3	data.mos
666	2994	55.813819256117	37.6000125267666	6213165.938818752	4523074.07916381	Метро «Бутырская»	Метро «Бутырская»	data.mos
667	3009	55.5805208136	37.6431324539	6187195.274994895	4529134.339021256	Востряковский проезд	Востряковский проезд	data.mos
668	3010	55.58107784	37.64833146	6187257.282890102	4529865.267242481	К/т «Бирюсинка»	К/т «Бирюсинка»	data.mos
669	3036	55.66435053	37.62104973	6196527.156337888	4526030.298987113	Симферопольский проезд	Симферопольский проезд	data.mos
670	3011	55.58211853	37.64791486	6187373.131970976	4529806.695566598	Управа района Бирюлёво Западное	Управа района Бирюлёво Западное	data.mos
671	3037	55.66939914	37.62533477	6197089.165032302	4526632.550013937	Хлебозаводский пр.	Хлебозаводский пр.	data.mos
672	3012	55.5848123	37.6468648	6187673.00107569	4529659.064345475	Медынская ул., 12	Медынская ул., 12	data.mos
673	3038	55.67542781	37.62646871	6197760.273506862	4526791.9280878585	1-й Нагатинский пр.	1-й Нагатинский пр.	data.mos
674	3014	55.58706418	37.65681482	6187923.679210617	4531058.052618546	ОВД «Бирюлёво Западное»	ОВД «Бирюлёво Западное»	data.mos
675	3015	55.58929215	37.65555339	6188171.69569652	4530880.683224242	Булатниковский пр., 10	Булатниковский пр., 10	data.mos
676	3041	55.68969014	37.62171054	6199347.948819988	4526123.171819098	МЦК Верхние Котлы	МЦК Верхние Котлы	data.mos
677	3016	55.59235391	37.65238909	6188512.529260651	4530435.764958125	Ст. Бирюлево-тов.	Ст. Бирюлево-тов.	data.mos
678	3046	55.71387425	37.62458854	6202040.111630477	4526527.666866724	Серпуховская Застава	Серпуховская Застава	data.mos
679	3018	55.58907045	37.64537439	6188147.016165411	4529449.526523476	Медынская ул., 8	Медынская ул., 8	data.mos
680	3047	55.71544578	37.62570327	6202215.053549843	4526684.343334434	Александровские казармы	Александровские казармы	data.mos
681	3019	55.58678319	37.64574591	6187892.399546899	4529501.758396109	Медынская улица	Медынская улица	data.mos
682	3048	55.71942783	37.62780194	6202658.333328157	4526979.319974586	3-й Павловский пер. - Театриум на Серпуховке	3-й Павловский пер. - Театриум на Серпуховке	data.mos
683	3020	55.58438499	37.64669631	6187625.433144079	4529635.376003477	Медынская ул., 12	Медынская ул., 12	data.mos
684	3049	55.72210574	37.62770898	6202956.436905747	4526966.253890618	Ул. Павла Андреева	Ул. Павла Андреева	data.mos
685	3050	55.72499391	37.62622664	6203277.946519472	4526757.904346026	Ин-т им. Вишневского	Ин-т им. Вишневского	data.mos
686	3022	55.58044445	37.64742772	6187186.774237828	4529738.206770158	К/т «Бирюсинка»	К/т «Бирюсинка»	data.mos
687	3053	55.73267626	37.61994227	6204133.141809566	4525874.654061431	1-й Спасоналивковский пер.	1-й Спасоналивковский пер.	data.mos
688	3023	55.58537204	37.64057509	6187735.3110474665	4528774.818024131	Востряковский пр., 3	Востряковский пр., 3	data.mos
689	3059	55.73322384	37.61936368	6204194.098136336	4525793.338640188	1-й Казачий пер.	1-й Казачий пер.	data.mos
690	3060	55.73044364	37.62271981	6203884.607688031	4526265.020180968	Серпуховская пл.	Серпуховская пл.	data.mos
691	3025	55.58917091	37.63528842	6188158.199321456	4528031.643173228	Ступинский пр.	Ступинский пр.	data.mos
692	3062	55.72263741	37.62219435	6203015.622139417	4526191.168899579	3-й Люсиновский пер.	3-й Люсиновский пер.	data.mos
693	3064	55.71725319	37.62217293	6202416.253510698	4526188.158416137	Детская п-ка	Детская п-ка	data.mos
694	2962	55.75595346	37.54964802	6206724.3478606595	4516000.080202884	Мантулинская ул.	Мантулинская ул.	data.mos
695	3065	55.71289872	37.62209302	6201931.516127623	4526176.927437249	Даниловский рынок	Даниловский рынок	data.mos
696	2963	55.75360976	37.54556839	6206463.448370088	4515427.2809110535	1-й Красногвардейский пр.	1-й Красногвардейский пр.	data.mos
697	3071	55.67861735	37.62474332	6198115.331475527	4526549.421217182	Нижние Котлы	Нижние Котлы	data.mos
698	2957	55.77024842	37.56622358	6208315.655528771	4518327.689541317	Б. Тишинский пер.	Б. Тишинский пер.	data.mos
699	3072	55.6739732	37.62597533	6197598.347062359	4526722.5820087595	1-й Нагатинский пр.	1-й Нагатинский пр.	data.mos
700	3073	55.66870138	37.62399249	6197011.490744406	4526443.892379685	Хлебозаводский пр.	Хлебозаводский пр.	data.mos
701	3076	55.65639377	37.61311211	6195641.413866323	4524914.779211366	Болотниковская ул., 4	Болотниковская ул., 4	data.mos
702	3079	55.81921686	37.59156004	6213766.797334511	4521886.542196891	Огородный проезд	Огородный проезд	data.mos
703	3080	55.81461396	37.59307444	6213254.404850339	4522099.298773131	Ул. Гончарова	Ул. Гончарова	data.mos
704	3091	55.81511561	37.59377086	6213310.248272895	4522197.139591734	Ул. Гончарова	Ул. Гончарова	data.mos
705	3092	55.81842195	37.59261757	6213678.308358084	4522035.113097207	Огородный пр.	Огородный пр.	data.mos
706	3094	55.62380949	37.59396605	6192014.148408858	4522224.562215709	К/т «Ашхабад»	К/т «Ашхабад»	data.mos
707	2969	55.85698063	37.66085193	6217970.640981345	4531625.730021918	Берингов пр.	Берингов пр.	data.mos
708	2971	55.85716718	37.65602636	6217991.407632353	4530947.187078602	Кольская ул.	Кольская ул.	data.mos
709	2974	55.75628784	37.55043458	6206761.570871991	4516110.520541295	Мантулинская ул.	Мантулинская ул.	data.mos
710	2958	55.76683401	37.5645397	6207935.565146211	4518091.208450553	Ул. Климашкина	Ул. Климашкина	data.mos
711	3257	55.6761207986	37.6747934836	6197837.41664494	4533586.356180671	Ул. Новинки	Ул. Новинки	data.mos
712	3259	55.63067492	37.67334885	6192778.404580534	4533383.177611853	Школа	Школа	data.mos
713	3260	55.62994547	37.66443337	6192697.2025779765	4532129.359322349	Кавказский бульв., 18	Кавказский бульв., 18	data.mos
714	3261	55.63030612	37.66203415	6192737.349952331	4531791.973490975	Пролетарский проспект, 45	Пролетарский проспект, 45	data.mos
715	3263	55.64499656	37.65652444	6194372.682252659	4531017.222083745	Управа района Москворечье - Сабурово	Управа района Москворечье - Сабурово	data.mos
716	3264	55.64802614	37.65732539	6194709.933555577	4531129.844610409	Пролетарский просп.	Пролетарский просп.	data.mos
717	3269	55.68094148	37.62390492	6198374.0524436645	4526431.584522799	Платф. Нагатинская	Платф. Нагатинская	data.mos
718	3275	55.64776552	37.65657761	6194680.921469887	4531024.6983426735	Пролетарский просп.	Пролетарский просп.	data.mos
719	3165	55.78512317	37.61589363	6209971.505124447	4525305.668796074	Центральный Музей Вооруженных сил	Центральный Музей Вооруженных сил	data.mos
720	3166	55.77448927	37.60842303	6208787.7447913	4524255.851548624	Краснопролетарская ул.	Краснопролетарская ул.	data.mos
721	3167	55.77635344	37.60749928	6208995.263246452	4524126.047522925	2-й Щемиловский пер.	2-й Щемиловский пер.	data.mos
722	3169	55.78081129	37.60987479	6209491.508838486	4524459.854040336	Селезневская ул.	Селезневская ул.	data.mos
723	3170	55.78261737	37.61565505	6209692.560744417	4525272.140354166	Центральный Театр Российской Армии	Центральный Театр Российской Армии	data.mos
724	3171	55.78525553	37.61643634	6209986.239372249	4525381.938040372	Центральный Музей Вооруженных сил	Центральный Музей Вооруженных сил	data.mos
725	3181	55.78961555	37.58860038	6210471.594578497	4521470.75495331	Угловой пер.	Угловой пер.	data.mos
726	3186	55.780751	37.60738951	6209484.7973863855	4524110.6229070565	Селезневская ул.	Селезневская ул.	data.mos
727	3187	55.77995384	37.60507947	6209396.057941104	4523786.026933107	Метро «Новослободская»	Метро «Новослободская»	data.mos
728	3222	55.68932657	37.69414129	6199307.47639272	4536307.884026782	Храм Спиридона	Храм Спиридона	data.mos
729	3188	55.77629164	37.60717368	6208988.383701921	4524080.295061964	2-й Щемиловский пер.	2-й Щемиловский пер.	data.mos
730	3206	55.66287143	37.61589928	6196362.503679056	4525306.462810693	Нахимовский проспект, 1	Нахимовский проспект, 1	data.mos
731	1000506	55.65626463	37.61765292	6195627.038067283	4525552.911000036	Болотниковская ул., 1	Болотниковская ул., 1	data.mos
732	3208	55.61068154	37.60733438	6190552.751699699	4524102.876180901	Метро «Пражская»	Метро «Пражская»	data.mos
733	3211	55.6796555861	37.6986089196	6198230.907389502	4536936.416818486	ОВД Нагатинский Затон	ОВД Нагатинский Затон	data.mos
734	3212	55.6783303	37.69438885	6198083.377215696	4536342.711253681	Корабельная улица	Корабельная улица	data.mos
735	3213	55.67711796	37.69009163	6197948.420144226	4535738.186414012	Диспансер	Диспансер	data.mos
736	3224	55.68606018	37.69145258	6198943.8635211885	4535929.638513685	Нагатино	Нагатино	data.mos
737	3215	55.6761856159	37.6774511688	6197844.632073771	4533960.1531095235	Кленовый бульв.	Кленовый бульв.	data.mos
738	3216	55.67711439	37.6663927	6197948.022733645	4532404.894533485	Районный центр «Орбита»	Районный центр «Орбита»	data.mos
739	3227	55.6895495114	37.6946535851	6199332.294115845	4536379.954836034	Храм Спиридона	Храм Спиридона	data.mos
740	3218	55.686272	37.67304993	6198967.443215728	4533341.136900456	Причал «Кленовый бульвар»	Причал «Кленовый бульвар»	data.mos
741	3219	55.68796666	37.67899146	6199156.091903996	4534176.797431766	Нагатинская набережная, 48	Нагатинская набережная, 48	data.mos
742	3228	55.69088822	37.68910616	6199481.318475517	4535599.557282997	Нагатинская набережная, 62	Нагатинская набережная, 62	data.mos
743	3220	55.68951802	37.68442481	6199328.788509233	4534941.042371849	Якорная ул.	Якорная ул.	data.mos
744	3255	55.68333233	37.66383372	6198640.200648228	4532045.03363894	Метромост	Метромост	data.mos
745	3221	55.69084294	37.69024334	6199476.2779289745	4535759.52809536	Нагатинская набережная, 62	Нагатинская набережная, 62	data.mos
746	3229	55.689356	37.68318523	6199310.752525333	4534766.6804179605	Якорная ул.	Якорная ул.	data.mos
747	3230	55.68790252	37.67802001	6199148.951871856	4534040.160973888	Нагатинская набережная, 48	Нагатинская набережная, 48	data.mos
748	3447	55.78219939	37.6710142	6209646.031423656	4533054.83223327	Леснорядская ул.	Леснорядская ул.	data.mos
749	3448	55.78001484	37.66689278	6209402.848430043	4532475.22057925	Метро «Красносельская»	Метро «Красносельская»	data.mos
750	3231	55.68637014	37.67247617	6198978.368110554	4533260.44261191	Причал «Кленовый бульвар»	Причал «Кленовый бульвар»	data.mos
751	3449	55.77659878	37.65901295	6209022.574370324	4531367.138394331	Метро «Комсомольская»	Метро «Комсомольская»	data.mos
752	3450	55.77634369	37.64971228	6208994.177881417	4530059.405312964	МЦД Каланчёвская	МЦД Каланчёвская	data.mos
753	3236	55.67717012	37.69107562	6197954.2265688665	4535876.609186886	Диспансер	Диспансер	data.mos
754	3298	55.84315257	37.66534786	6216431.308383487	4532257.960641038	МЦК Ростокино	МЦК Ростокино	data.mos
755	3237	55.67831299	37.69516819	6198081.450275309	4536452.351094393	Корабельная улица	Корабельная улица	data.mos
756	3300	55.83266096	37.65264608	6215263.387700684	4530471.8984811455	Сельскохозяйственная ул.	Сельскохозяйственная ул.	data.mos
757	3238	55.680487363	37.7004384522	6198323.500370463	4537193.817313281	ОВД Нагатинский Затон	ОВД Нагатинский Затон	data.mos
758	3315	55.82879144	37.64887898	6214832.634704671	4529942.246052198	Ул. Сергея Эйзенштейна	Ул. Сергея Эйзенштейна	data.mos
759	3316	55.831874	37.65211964	6215175.78371421	4530397.879658045	Сельскохозяйственная ул.	Сельскохозяйственная ул.	data.mos
760	3317	55.83693377	37.65819636	6215739.034734141	4531252.314110988	Ул. Докукина	Ул. Докукина	data.mos
761	3241	55.67654682	37.67354687	6197884.841130255	4533411.027637099	Ул. Новинки	Ул. Новинки	data.mos
762	3318	55.8428769	37.66535241	6216400.62093946	4532258.600494533	МЦК Ростокино	МЦК Ростокино	data.mos
763	3242	55.68526674	37.66345606	6198855.538184413	4531991.925612676	Метромост	Метромост	data.mos
764	3320	55.85073276	37.67070145	6217275.131274403	4533010.847830723	Комбинат «Лира» - Пенсионный фонд	Комбинат «Лира» - Пенсионный фонд	data.mos
765	3243	55.68472626	37.65646723	6198795.372226029	4531009.17776448	Нагатинская наб., 18	Нагатинская наб., 18	data.mos
766	3321	55.854727567	37.6648915064	6217719.831155459	4532193.7851379	Берингов пр.	Берингов пр.	data.mos
767	3244	55.68404309	37.64766085	6198719.322089504	4529770.9833145	Нагатинская набережная, 14	Нагатинская набережная, 14	data.mos
768	3245	55.68356662	37.64150841	6198666.281691725	4528906.02518994	Нагатинская наб., 10	Нагатинская наб., 10	data.mos
769	3322	55.85949898	37.66023251	6218250.982420985	4531538.628399491	Радужная ул.	Радужная ул.	data.mos
770	3246	55.68178688	37.63397516	6198468.161941181	4527847.039545763	Ювелирный з-д	Ювелирный з-д	data.mos
771	3326	55.87414701	37.63721766	6219881.59366171	4528302.840402283	К/т «Полярный»	К/т «Полярный»	data.mos
772	3251	55.68127035	37.6334879	6198410.662084602	4527778.546731118	Ювелирный з-д	Ювелирный з-д	data.mos
773	3327	55.8779133	37.63611544	6220300.855146689	4528147.898210876	Ул. Молодцова	Ул. Молодцова	data.mos
774	3252	55.68327491	37.64103269	6198633.808683067	4528839.1477361685	Нагатинская наб., 10	Нагатинская наб., 10	data.mos
775	3328	55.88162384	37.63907886	6220713.910570057	4528564.479782499	Поликлиника	Поликлиника	data.mos
776	3253	55.68386605	37.64849744	6198699.614086854	4529888.603211977	Нагатинская набережная, 14	Нагатинская набережная, 14	data.mos
777	3329	55.8873591563	37.6434094977	6221352.363060111	4529173.287316185	Медведково	Медведково	data.mos
778	3254	55.68456344	37.65739031	6198777.247186538	4531138.97314161	Нагатинская наб., 18	Нагатинская наб., 18	data.mos
779	3331	55.87889939	37.63611889	6220410.6261833655	4528148.383183574	Ул. Молодцова	Ул. Молодцова	data.mos
780	3335	55.65349763	37.6147332	6195319.017036257	4525142.5907146325	Метро «Варшавская»	Метро «Варшавская»	data.mos
781	3336	55.65348226	37.61114746	6195317.306055684	4524638.693935677	Пл. Акад. Вишневского	Пл. Акад. Вишневского	data.mos
782	3347	55.66733882	37.55191024	6196859.81125903	4516317.7200722555	Школа-интернат № 17	Школа-интернат № 17	data.mos
783	3350	55.6672012	37.55109329	6196844.491470708	4516203.0104475245	Школа-интернат № 17	Школа-интернат № 17	data.mos
784	3362	55.81311993	37.59291293	6213088.090191509	4522076.6081848005	2-й Гончаровский пер.	2-й Гончаровский пер.	data.mos
785	3286	55.88198239	37.63910293	6220753.824173481	4528567.863481072	Поликлиника	Поликлиника	data.mos
786	3288	55.87175104	37.63767508	6219614.875501352	4528367.14190384	МФЦ «Южное Медведково»	МФЦ «Южное Медведково»	data.mos
787	3289	55.87148746	37.64633695	6219585.533909969	4529584.853050586	Пр. Шокальского	Пр. Шокальского	data.mos
788	3279	55.62940816	37.6727812	6192637.389502377	4533303.342316083	Школа	Школа	data.mos
789	3363	55.81230686	37.58460862	6212997.579653129	4520909.999533498	Ул. Яблочкова	Ул. Яблочкова	data.mos
790	3366	55.78685006	37.5934603	6210163.741639904	4522153.508559597	Вадковский пер.	Вадковский пер.	data.mos
791	3367	55.78353752	37.59701957	6209794.991373871	4522653.566563407	Лесная ул.	Лесная ул.	data.mos
792	3368	55.77838445	37.60143355	6209221.3542454485	4523273.739883115	Метро «Новослободская»	Метро «Новослободская»	data.mos
793	3370	55.77157092	37.6046095	6208462.875555345	4523719.990189484	Садовая-Каретная ул.	Садовая-Каретная ул.	data.mos
794	3371	55.76678578	37.60640124	6207930.196207169	4523971.754613286	Ул. М. Дмитровка	Ул. М. Дмитровка	data.mos
795	3372	55.76578344	37.60862818	6207818.616228768	4524284.67915129	Метро «Чеховская»	Метро «Чеховская»	data.mos
796	3375	55.76746405	37.60646798	6208005.70087819	4523981.132629936	Ул. М. Дмитровка	Ул. М. Дмитровка	data.mos
797	3376	55.77120214	37.60522392	6208421.823153529	4523806.324073374	Садовая-Каретная ул.	Садовая-Каретная ул.	data.mos
798	3378	55.77836424	37.60191489	6209219.10447854	4523341.371373647	Метро «Новослободская»	Метро «Новослободская»	data.mos
799	3379	55.78179139	37.59898322	6209600.613071412	4522929.458906827	Метро «Менделеевская»	Метро «Менделеевская»	data.mos
800	16223	55.59310354	37.2357895781	6188595.977690535	4472023.972884688	АЗС	АЗС	data.mos
801	3380	55.78801454	37.59323759	6210293.370960542	4522122.219815549	Вадковский пер.	Вадковский пер.	data.mos
802	3383	55.81215779	37.58532915	6212980.9852566365	4521011.216095781	Ул. Яблочкова	Ул. Яблочкова	data.mos
803	3387	55.58006633	37.64953224	6187144.682111969	4530034.092165144	К/т «Бирюсинка»	К/т «Бирюсинка»	data.mos
804	3384	55.81270537	37.59106982	6213041.941583406	4521817.672595639	2-й Гончаровский пер.	2-й Гончаровский пер.	data.mos
805	3388	55.57982222	37.65270795	6187117.507911071	4530480.597597334	Ледовый дворец	Ледовый дворец	data.mos
806	3389	55.57849565	37.65998173	6186969.83481417	4531503.36441568	Детская п-ка	Детская п-ка	data.mos
807	3390	55.57525267	37.65851617	6186608.827931917	4531297.283840224	МФЦ Бирюлево Западное	МФЦ Бирюлево Западное	data.mos
808	3394	55.57891735	37.65957404	6187016.778243437	4531446.036439757	Детская п-ка	Детская п-ка	data.mos
809	3386	55.5874871731	37.6406289296	6187970.766587119	4528782.386810303	Харьковская ул.	Харьковская ул.	data.mos
810	3395	55.58013006	37.65182515	6187151.776503118	4530356.473832632	Ледовый дворец	Ледовый дворец	data.mos
811	3396	55.58741619	37.64463014	6187962.864784571	4529344.893450585	Медынская улица	Медынская улица	data.mos
812	3405	55.82350381	37.63501948	6214244.018425567	4527993.83828429	ВДНХ (главный вход)	ВДНХ (главный вход)	data.mos
813	3409	55.57521133	37.65668423	6186604.225984168	4531039.690247594	МФЦ Бирюлево Западное	МФЦ Бирюлево Западное	data.mos
814	3411	55.59096542	37.64774168	6188357.96326088	4529782.347504775	Медынская улица, 4	Медынская улица, 4	data.mos
815	3412	55.59184885	37.65368854	6188456.306238631	4530618.472596816	Ст. Бирюлево-тов.	Ст. Бирюлево-тов.	data.mos
816	3413	55.58856241	37.65553886	6188090.4614113085	4530878.640181699	Булатниковский пр., 10	Булатниковский пр., 10	data.mos
817	3414	55.58615145	37.65695948	6187822.0745717855	4531078.393421867	ОВД «Бирюлёво Западное»	ОВД «Бирюлёво Западное»	data.mos
818	3415	55.5809769445	37.6591255122	6187246.051254419	4531382.966355517	Платф. Бирюлево - пасс.	Платф. Бирюлево - пасс.	data.mos
819	3455	55.70480891	37.82721132	6201030.962597809	4555045.241370517	Роддом № 8	Роддом № 8	data.mos
820	3419	55.78285868	37.64212878	6209719.42325074	4528993.238407947	Орлово-Давыдовский пер.	Орлово-Давыдовский пер.	data.mos
821	3420	55.77998709	37.64350689	6209399.759314174	4529186.97927964	Протопоповский пер.	Протопоповский пер.	data.mos
822	3421	55.77785337	37.64745864	6209162.234690278	4529742.553912832	Грохольский пер.	Грохольский пер.	data.mos
823	3422	55.7760724	37.64957201	6208963.978016759	4530039.683716678	МЦД Каланчёвская	МЦД Каланчёвская	data.mos
824	3428	55.78634871	37.67742329	6210107.931613194	4533956.23195494	Маленковская ул.	Маленковская ул.	data.mos
825	3290	55.87139526	37.65163632	6219575.270252919	4530329.924080284	Сухонская ул.	Сухонская ул.	data.mos
826	3611	55.82199764	37.63369298	6214076.352348119	4527807.374214921	ВДНХ (южн.)	ВДНХ (южн.)	data.mos
827	3291	55.87035378	37.65833397	6219459.333229647	4531271.663965112	Ул. Менжинского, 38	Ул. Менжинского, 38	data.mos
828	3473	55.7851504	37.59603011	6209974.536354181	4522514.55043477	Лесная ул.	Лесная ул.	data.mos
829	3292	55.86807931	37.66336063	6219206.140387422	4531978.505915604	Метро «Бабушкинская»	Метро «Бабушкинская»	data.mos
830	3475	55.7856008444768	37.6071454956698	6210024.67960397	4524076.334682969	Пл. Борьбы	Пл. Борьбы	data.mos
831	3476	55.78524345	37.60243014	6209984.8946328005	4523413.76793097	Ул. Палиха	Ул. Палиха	data.mos
832	3482	55.79211707	37.57839628	6210750.062511107	4520037.360752234	К/т «Прага»	К/т «Прага»	data.mos
833	3295	55.8544142385	37.6650347039	6217684.951586388	4532213.922488027	Берингов пр.	Берингов пр.	data.mos
834	3609	55.8217648078	37.6213137939	6214050.433586176	4526067.411465402	Аргуновская ул.	Аргуновская ул.	data.mos
835	3483	55.7904753	37.57226079	6210567.301510707	4519175.5884432625	Ул. Нижн. Масловка	Ул. Нижн. Масловка	data.mos
836	3485	55.79247837	37.60328867	6210790.28224313	4523534.399061973	Новосущевская ул.	Новосущевская ул.	data.mos
837	3487	55.63430514	37.6075975	6193182.518822403	4524139.849179923	Центр творчества «На Сумском»	Центр творчества «На Сумском»	data.mos
838	3552	55.76147097	37.53980855	6207338.554264306	4514618.625579455	Ул. Литвина-Седого	Ул. Литвина-Седого	data.mos
839	3498	55.65318273	37.5453821	6195283.962528607	4515401.125664911	Ул. Обручева, 29	Ул. Обручева, 29	data.mos
840	3553	55.76109619	37.53931549	6207296.833945548	4514549.40510137	Ул. Литвина-Седого	Ул. Литвина-Седого	data.mos
841	3554	55.75708202	37.53986291	6206849.978585189	4514626.25718413	Шмитовский пр.	Шмитовский пр.	data.mos
842	3511	55.63400862	37.60853457	6193149.510366993	4524271.525098603	Центр творчества «На Сумском»	Центр творчества «На Сумском»	data.mos
843	3560	55.60936606	37.591337	6190406.31313595	4521855.207890997	Чертановская ул., 44	Чертановская ул., 44	data.mos
844	3518	55.71997244	37.73179757	6202718.959036037	4541606.780624112	2-й Грайвороновский пр.	2-й Грайвороновский пр.	data.mos
845	3561	55.61605708	37.59247105	6191151.154075237	4522014.528582769	Детская стоматологическая п-ка	Детская стоматологическая п-ка	data.mos
846	3520	55.71656101	37.72606005	6202339.20038556	4540799.237371489	Грайвороновская ул.	Грайвороновская ул.	data.mos
847	3562	55.61999531	37.59364402	6191589.5558334645	4522179.319631186	Чертановская ул., 28	Чертановская ул., 28	data.mos
848	3456	55.70818502	37.82970615	6201406.789443871	4555396.856278145	Рязанский просп.	Рязанский просп.	data.mos
849	3563	55.60920098	37.59064068	6190387.936514409	4521757.384320706	Чертановская ул., 44	Чертановская ул., 44	data.mos
850	3458	55.70776478	37.82926602	6201360.00854106	4555334.824627112	Рязанский просп.	Рязанский просп.	data.mos
851	3564	55.60229653	37.5889808	6189619.336656202	4521524.197254965	Чертановская улица, 53	Чертановская улица, 53	data.mos
852	3451	55.78100141	37.64325965	6209512.672900075	4529152.220909318	Протопоповский пер.	Протопоповский пер.	data.mos
853	3565	55.61986916	37.59426469	6191575.5128797	4522266.518871262	Чертановская ул., 28	Чертановская ул., 28	data.mos
854	3531	55.63268467	37.65890885	6193002.128927157	4531352.50036882	Пролетарский просп., 33	Пролетарский просп., 33	data.mos
855	3532	55.63158775	37.66817521	6192880.020351316	4532655.570351055	Районный центр «Эльбрус»	Районный центр «Эльбрус»	data.mos
856	3537	55.65823855	37.51745409	6195846.773836549	4511480.752605953	Ул. Обручева, 15	Ул. Обручева, 15	data.mos
857	3566	55.61620561	37.5931887	6191167.688359205	4522115.351224533	Детская стоматологическая п-ка	Детская стоматологическая п-ка	data.mos
858	3541	55.64101712	37.60817731	6193929.693018217	4524221.323169115	Метро «Чертановская»	Метро «Чертановская»	data.mos
859	3542	55.64070281	37.61369274	6193894.704189066	4524996.374476141	Балаклавский просп., 3	Балаклавский просп., 3	data.mos
860	3569	55.64474274	37.61397409	6194344.427139506	4525035.912496559	Артековская ул.	Артековская ул.	data.mos
861	3550	55.75704675	37.54023564	6206846.052346749	4514678.584928018	Шмитовский пр.	Шмитовский пр.	data.mos
862	3571	55.64109921	37.61291704	6193938.831235217	4524887.366392039	Балаклавский просп., 3	Балаклавский просп., 3	data.mos
863	3551	55.75885397	37.53879784	6207047.2311569005	4514476.732936462	Школа № 2055	Школа № 2055	data.mos
864	3572	55.64137127	37.60782447	6193969.116815882	4524171.742571662	Метро «Чертановская»	Метро «Чертановская»	data.mos
