id	stop_id	lat	lon	x	y	stop_name	info	source_name
0	3630	55.79290264	37.78772601	4206510.41766894	7517298.410503697	5-я Парковая ул.	5-я Парковая ул.	data.mos
1	3631	55.79301399	37.7938182	4207188.597157555	7517320.4591617165	7-я Парковая ул.	7-я Парковая ул.	data.mos
2	3632	55.79309877	37.79882395	4207745.834698593	7517337.2466779575	Метро «Первомайская»	Метро «Первомайская»	data.mos
3	3633	55.79343936	37.81981326	4210082.353999895	7517404.688189857	15-я Парковая ул.	15-я Парковая ул.	data.mos
4	3627	55.7866487	37.76169693	4203612.873737522	7516060.1552888965	Главная ал.	Главная ал.	data.mos
5	3701	55.79949205	37.68612005	4195199.693940178	7518603.302571064	Ул. Короленко	Ул. Короленко	data.mos
6	3731	55.77232795	37.65776441	4192043.15853426	7513225.452373619	Новорязанская ул.	Новорязанская ул.	data.mos
7	3704	55.79929487	37.72850093	4199917.511921149	7518564.252074017	Халтуринская ул.	Халтуринская ул.	data.mos
8	3939	55.7586587282	37.7521852608	4202554.039565584	7510520.686700942	Метро «Ш. Энтузиастов»	Метро «Ш. Энтузиастов»	data.mos
9	3756	55.69179028	37.66635483	4192999.4397143605	7497302.891773772	Южный речной вокз.	Южный речной вокз.	data.mos
10	3705	55.80230284	37.72689301	4199738.519085512	7519159.986749662	Черкизово	Черкизово	data.mos
11	3803	55.68532783	37.70808591	4197644.922290213	7496026.666586674	Нагатинский затон	Нагатинский затон	data.mos
12	3758	55.71150711	37.66609622	4192970.6513808463	7501197.938200914	Велозаводский рынок	Велозаводский рынок	data.mos
13	3707	55.79370757	37.82154197	4210274.793116825	7517457.797879746	16-я Парковая ул.	16-я Парковая ул.	data.mos
14	3804	55.60246308	37.58945246	4184438.707045164	7479680.930635853	Чертановская улица, 53	Чертановская улица, 53	data.mos
15	3708	55.79367591	37.81877179	4209966.418089819	7517451.528695569	15-я Парковая ул.	15-я Парковая ул.	data.mos
16	3759	55.71311863	37.66365294	4192698.6666953806	7501516.37977573	Ул. Ленинская Слобода	Ул. Ленинская Слобода	data.mos
17	3710	55.79345224	37.80513675	4208448.572380073	7517407.238618863	К/т «Первомайский»	К/т «Первомайский»	data.mos
18	3805	55.61949019	37.59394526	4184938.8432534006	7483036.843029375	Чертановская ул., 28	Чертановская ул., 28	data.mos
19	3712	55.79328531	37.79351143	4207154.447677365	7517374.184094646	7-я Парковая ул.	7-я Парковая ул.	data.mos
20	3634	55.79348732	37.82240578	4210370.952006167	7517414.184977914	16-я Парковая ул.	16-я Парковая ул.	data.mos
21	3806	55.61971205	37.5937583	4184918.0309614013	7483080.579547145	Чертановская ул., 28	Чертановская ул., 28	data.mos
22	3714	55.79287267	37.78237946	4205915.242445438	7517292.476088952	3-я Парковая ул.	3-я Парковая ул.	data.mos
23	3636	55.79367666	37.8196404	4210063.111312717	7517451.677207454	15-я Парковая улица	15-я Парковая улица	data.mos
24	3720	55.78106828	37.71572353	4198495.138259486	7514955.422161293	Б. Семеновская ул.	Б. Семеновская ул.	data.mos
25	3807	55.60254477	37.5892918	4184420.8224557736	7479697.027628414	Чертановская улица, 53	Чертановская улица, 53	data.mos
26	3637	55.79356552	37.81296223	4209319.700828886	7517429.669757499	13-я Парковая ул.	13-я Парковая ул.	data.mos
27	3723	55.78120327	37.69559672	4196254.632018994	7514982.143717049	Переведеновский пер.	Переведеновский пер.	data.mos
28	3638	55.79328374	37.79431249	4207243.62126866	7517373.873212894	7-я Парковая улица	7-я Парковая улица	data.mos
29	3808	55.6871359	37.68246978	4194793.347742519	7496383.708752188	Якорная ул.	Якорная ул.	data.mos
30	3724	55.77917108	37.6915218	4195801.013999569	7514579.877205008	Бакунинская ул., 84	Бакунинская ул., 84	data.mos
31	3809	55.68321282	37.68259728	4194807.540977596	7495609.033489644	Затонная ул.	Затонная ул.	data.mos
32	3725	55.77763099	37.68908509	4195529.760683159	7514275.034529488	Балакиревский пер.	Балакиревский пер.	data.mos
33	3639	55.79309612	37.7888255	4206632.812335872	7517336.721943762	5-я Парковая ул.	5-я Парковая ул.	data.mos
34	3810	55.67789286	37.68555547	4195136.845182065	7494558.645926294	Поликлиника	Поликлиника	data.mos
35	3640	55.79299456	37.78351658	4206041.826064809	7517316.611780209	3-я Парковая ул.	3-я Парковая ул.	data.mos
36	3729	55.77159956	37.66947884	4193347.202916793	7513081.299963624	Спартаковская ул.	Спартаковская ул.	data.mos
37	3628	55.79134795	37.7753453	4205132.20333608	7516990.569506723	Измайловская пл.	Измайловская пл.	data.mos
38	3730	55.77233515	37.66338778	4192669.1492192023	7513226.877306891	2-й троллейбусный парк	2-й троллейбусный парк	data.mos
39	3818	55.67843726	37.68554388	4195135.554989167	7494666.127200926	Поликлиника	Поликлиника	data.mos
40	3890	55.8030616	37.78949321	4206707.14147307	7519310.268004965	Управа района Северное Измайлово	Управа района Северное Измайлово	data.mos
41	3629	55.79265201	37.78253568	4205932.63277629	7517248.782937641	3-я Парковая улица	3-я Парковая улица	data.mos
42	3819	55.68317477	37.68320288	4194874.956061221	7495601.52028549	Затонная ул.	Затонная ул.	data.mos
43	3923	55.82480968	37.75877062	4203287.118398419	7523618.974143886	Монтажная ул.	Монтажная ул.	data.mos
44	3924	55.82301887	37.75532705	4202903.781939507	7523264.089811895	Консультативно-диагностический центр	Консультативно-диагностический центр	data.mos
45	3820	55.68681487	37.68304223	4194857.072585024	7496320.313294169	Якорная ул.	Якорная ул.	data.mos
46	3925	55.82072335	37.75089068	4202409.927490137	7522809.2111255955	Тагильская ул.	Тагильская ул.	data.mos
47	3822	55.58898692	37.61070682	4186804.731577501	7477025.915690089	Центр детского творчества «Виктория»	Центр детского творчества «Виктория»	data.mos
48	3895	55.80378443	37.75854367	4203261.854439983	7519453.435629329	37-й квартал Измайлова	37-й квартал Измайлова	data.mos
49	3926	55.81750915	37.74323705	4201557.929295816	7522172.332528543	Плодоовощной комбинат	Плодоовощной комбинат	data.mos
50	3897	55.80127436	37.7447977	4201731.660059123	7518956.288982164	Метро «Черкизовская»	Метро «Черкизовская»	data.mos
51	3931	55.75676676	37.74242292	4201467.300758778	7510146.392561443	Просп. Буденного	Просп. Буденного	data.mos
52	3902	55.79570127	37.71285109	4198175.379701352	7517852.592494198	Метро «Преображенская пл.»	Метро «Преображенская пл.»	data.mos
53	3789	55.73564882	37.65666735	4191921.0343736904	7505969.794615045	Ул. Гвоздева	Ул. Гвоздева	data.mos
54	3932	55.7585579298	37.7525362095	4202593.106996163	7510500.74497212	Метро «Ш. Энтузиастов»	Метро «Ш. Энтузиастов»	data.mos
55	3792	55.73908464	37.65331306	4191547.6365189175	7506649.159533388	Метро «Таганская»	Метро «Таганская»	data.mos
56	3909	55.80218456	37.757599	4203156.694256616	7519136.560281905	Сиреневый бульв., 4	Сиреневый бульв., 4	data.mos
57	3937	55.76271149	37.77334214	4204909.212584902	7511322.518684325	К/т «Слава»	К/т «Слава»	data.mos
58	3911	55.80217882	37.77543318	4205141.986092931	7519135.423422668	Никитинская ул.	Никитинская ул.	data.mos
59	3938	55.75935534	37.75667589	4203053.934121469	7510658.504222203	Ул. Плеханова	Ул. Плеханова	data.mos
60	3912	55.8022689	37.78401125	4206096.89247732	7519153.264605792	3-я Парковая ул.	3-я Парковая ул.	data.mos
61	3793	55.7355263	37.65614072	4191862.410190254	7505945.569831545	Ул. Гвоздева	Ул. Гвоздева	data.mos
62	3785	55.67942535	37.66477936	4192824.0591961998	7494861.210325573	Метро «Коломенская»	Метро «Коломенская»	data.mos
63	3913	55.80239071	37.78876413	4206625.980658721	7519177.390276642	Управа района Северное Измайлово	Управа района Северное Измайлово	data.mos
64	3853	55.79540062	37.70819217	4197656.751099305	7517793.05616435	Преображенская пл.	Преображенская пл.	data.mos
65	3914	55.803099	37.79333608	4207134.927804654	7519317.675586304	7-я Парковая ул.	7-я Парковая ул.	data.mos
66	3915	55.8025205472	37.799498078	4207820.878284283	7519203.105896659	Районный центр «София»	Районный центр «София»	data.mos
67	3916	55.80258572	37.80340309	4208255.582231665	7519216.014085974	11-я Парковая ул.	11-я Парковая ул.	data.mos
68	3883	55.62376143	37.60928434	4186646.3818282383	7483878.900241777	Метро «Южная»	Метро «Южная»	data.mos
69	3917	55.80268962	37.81293139	4209316.26773579	7519236.59266755	13-я Парковая ул.	13-я Парковая ул.	data.mos
70	3888	55.80316028	37.79785239	4207637.681134119	7519329.812943512	Районный центр «София»	Районный центр «София»	data.mos
71	3918	55.80277245	37.81940145	4210036.511520392	7519252.998134344	Сиреневый бульв.	Сиреневый бульв.	data.mos
72	3889	55.80241271	37.79495385	4207315.017137275	7519181.747601485	7-я Парковая ул.	7-я Парковая ул.	data.mos
73	3922	55.82659032	37.76629688	4204124.937829196	7523971.859287942	Открытое ш., 26	Открытое ш., 26	data.mos
74	3794	55.72292752	37.6633683	4192666.9807155216	7503454.931602416	Шарикоподшипниковская ул.	Шарикоподшипниковская ул.	data.mos
75	3795	55.71682013	37.66380088	4192715.1353008486	7502247.857913644	13-я гор. б-ца	13-я гор. б-ца	data.mos
76	3797	55.67546205	37.68773487	4195379.454880301	7494078.7476497255	Диспансер	Диспансер	data.mos
77	3799	55.67608251	37.69777275	4196496.866570544	7494201.2380109215	Школа	Школа	data.mos
78	3800	55.6784418901	37.7046694386	4197264.602433656	7494667.041331237	Библиотека им. Симонова	Библиотека им. Симонова	data.mos
79	3787	55.71833839	37.66393432	4192729.9897737005	7502547.911460431	13-я гор. б-ца	13-я гор. б-ца	data.mos
80	3784	55.67523615	37.69381412	4196056.193894706	7494034.151264346	Коломенская наб.	Коломенская наб.	data.mos
81	4072	55.793198	37.8051935	4208454.889761176	7517356.895524046	К/т «Первомайский»	К/т «Первомайский»	data.mos
82	4073	55.79333234	37.79989628	4207865.205928156	7517383.496692029	Метро «Первомайская»	Метро «Первомайская»	data.mos
83	4076	55.75282419	37.80753529	4208715.576631521	7509366.479625567	Зеленый просп., 65	Зеленый просп., 65	data.mos
84	3975	55.77856544	37.66459734	4192803.796822486	7514459.996463262	Метро «Красносельская»	Метро «Красносельская»	data.mos
85	4077	55.75204273	37.81296254	4209319.735337929	7509211.901810389	Метро «Новогиреево»	Метро «Новогиреево»	data.mos
86	4078	55.75133023	37.81815909	4209898.21263781	7509070.967425652	Метро «Новогиреево»	Метро «Новогиреево»	data.mos
87	3976	55.7806512	37.66896911	4193290.4600327513	7514872.860878804	Краснопрудная ул.	Краснопрудная ул.	data.mos
88	4079	55.79073797	37.66054062	4192352.204817795	7516869.791966803	Ф-ка «Буревестник»	Ф-ка «Буревестник»	data.mos
89	4083	55.74758664	37.66871308	4193261.9589035246	7508330.517711533	Костомаровский мост	Костомаровский мост	data.mos
90	3977	55.78229457	37.67203621	4193631.888042964	7515198.172257476	Леснорядская ул.	Леснорядская ул.	data.mos
91	4084	55.75108511	37.6655924	4192914.566394995	7509022.482636372	Д/к Метростроя	Д/к Метростроя	data.mos
92	3978	55.79499915	37.70972651	4197827.5530468095	7517713.55563255	Преображенская пл.	Преображенская пл.	data.mos
93	4086	55.76417304	37.65717878	4191977.966500867	7511611.70429618	Пл. Земляной Вал	Пл. Земляной Вал	data.mos
94	4087	55.76553704	37.661022	4192405.791794274	7511881.5982219335	Сад им. Баумана	Сад им. Баумана	data.mos
95	4088	55.76697306	37.6648434	4192831.1880963915	7512165.752908578	Сервисный центр «Московский Транспорт» - Ул. Александра Лукьянова	Сервисный центр «Московский Транспорт» - Ул. Александра Лукьянова	data.mos
96	3980	55.804173	37.75783557	4203183.029108552	7519530.3990063835	37-й квартал Измайлова	37-й квартал Измайлова	data.mos
97	4089	55.76932953	37.66947005	4193346.2244184692	7512632.065748324	Пл. Разгуляй	Пл. Разгуляй	data.mos
98	4090	55.77536176	37.65733149	4191994.966100306	7513825.88913096	Метро «Комсомольская»	Метро «Комсомольская»	data.mos
99	3983	55.8089984790781	37.7780689963314	4205435.403824767	7520486.237175647	Монтажная ул.	Монтажная ул.	data.mos
100	4092	55.7869912	37.67282824	4193720.056419257	7516127.96377963	Ул. Шумкина, 26	Ул. Шумкина, 26	data.mos
101	4093	55.78822453	37.66983643	4193387.0096535063	7516372.1446186025	Москва - 2 - тов.	Москва - 2 - тов.	data.mos
102	3991	55.81484581	37.82896334	4211100.9362462135	7521644.644101059	Хабаровская ул., 4	Хабаровская ул., 4	data.mos
103	4094	55.78899652	37.66455016	4192798.5447689104	7516524.990992064	Ул. Лобачика	Ул. Лобачика	data.mos
104	3992	55.81692733	37.8272529	4210910.530936381	7522057.053258084	Байкальская ул.	Байкальская ул.	data.mos
105	4096	55.82475485	37.82475659	4210632.642978319	7523608.1082552215	Хабаровская ул., 20	Хабаровская ул., 20	data.mos
106	4016	55.78555024	37.67574847	4194045.134935856	7515842.6851071725	Маленковская ул.	Маленковская ул.	data.mos
107	4001	55.80780154	37.8180954	4209891.122699441	7520249.134628939	15-я Парковая ул.	15-я Парковая ул.	data.mos
108	3961	55.64342003	37.6382478	4189870.5794470496	7487755.695020248	2-й Котляковский переулок	2-й Котляковский переулок	data.mos
109	4018	55.76921469	37.66865041	4193254.982511035	7512609.339846377	Пл. Разгуляй	Пл. Разгуляй	data.mos
110	4002	55.81054678	37.81670981	4209736.879526193	7520792.952065313	Щелковское ш.	Щелковское ш.	data.mos
111	4019	55.76682881	37.66379647	4192714.6443818947	7512137.208743036	Сервисный центр «Московский Транспорт» - Улица Александра Лукьянова	Сервисный центр «Московский Транспорт» - Улица Александра Лукьянова	data.mos
112	3962	55.64470544	37.64083026	4190158.057579243	7488009.25340931	Котляковская улица	Котляковская улица	data.mos
113	4004	55.8085393252393	37.7748392791268	4205075.873350145	7520395.282190377	Монтажная ул.	Монтажная ул.	data.mos
114	4020	55.76536253	37.65978591	4192268.190884898	7511847.067498003	Сад им. Баумана	Сад им. Баумана	data.mos
115	3965	55.81460781	37.8280948	4211004.25081568	7521597.490840823	Хабаровская ул., 4	Хабаровская ул., 4	data.mos
116	3945	55.82058032	37.7507949	4202399.265309309	7522780.869286005	Тагильская ул.	Тагильская ул.	data.mos
117	4022	55.75172265	37.6646009	4192804.193119874	7509148.588821243	Д/к Метростроя	Д/к Метростроя	data.mos
118	4056	55.66804404	37.64823199	4190982.014393832	7492614.444736874	Ул. Акад. Миллионщикова, 23	Ул. Акад. Миллионщикова, 23	data.mos
119	3946	55.82273816	37.75508015	4202876.297157231	7523208.463068341	Консультативно-диагностический центр	Консультативно-диагностический центр	data.mos
120	4023	55.74743967	37.66818615	4193203.3013242395	7508301.449766493	Костомаровский мост	Костомаровский мост	data.mos
121	4057	55.670338051	37.6494295343	4191115.324415511	7493067.249065457	Ул. Акад. Миллионщикова, 13	Ул. Акад. Миллионщикова, 13	data.mos
122	3948	55.82717052	37.76365738	4203831.110033248	7524086.84613179	Детские ясли-сад	Детские ясли-сад	data.mos
123	4026	55.6771319	37.56431892	4181640.854170532	7494408.411565378	Метро «Профсоюзная»	Метро «Профсоюзная»	data.mos
124	4059	55.67481981	37.65477804	4191710.7173465393	7493951.959557036	Улица Академика Миллионщикова	Улица Академика Миллионщикова	data.mos
125	4006	55.80529262	37.76185647	4203630.633649083	7519752.164467738	Сиреневый сад	Сиреневый сад	data.mos
126	4031	55.66031803	37.58869032	4184353.8660084507	7491089.638213867	Болотниковская ул., 35	Болотниковская ул., 35	data.mos
127	4060	55.6729802	37.65800635	4192070.0911718626	7493588.803657235	Школа самбо	Школа самбо	data.mos
128	3972	55.80996747	37.78398802	4206094.30652555	7520678.190644006	3-я Парковая ул.	3-я Парковая ул.	data.mos
129	4008	55.80528901	37.76433166	4203906.1705395	7519751.449417282	Сиреневый сад	Сиреневый сад	data.mos
130	4032	55.65775304	37.59538996	4185099.6665217495	7490583.47793923	МФЦ Зюзино	МФЦ Зюзино	data.mos
131	4061	55.67202048	37.66186731	4192499.891273035	7493399.352897758	Проспект Андропова, 42	Проспект Андропова, 42	data.mos
132	4062	55.6692614	37.66124841	4192430.9956401843	7492854.730548041	Коломенский проезд - Музей «Коломенское»	Коломенский проезд - Музей «Коломенское»	data.mos
133	4033	55.65598083	37.59810619	4185402.035862227	7490233.779652413	Поликлиника	Поликлиника	data.mos
134	4063	55.6723714	37.66319533	4192647.725783199	7493468.624709612	Проспект Андропова, 42	Проспект Андропова, 42	data.mos
135	4035	55.64763684	37.59836188	4185430.499142828	7488587.528883152	Азовская ул., 35	Азовская ул., 35	data.mos
136	4066	55.75344912	37.79868348	4207730.197649722	7509490.097028243	Новогиреевская ул., 37	Новогиреевская ул., 37	data.mos
137	4036	55.64387078	37.5944741	4184997.7134529115	7487844.608461151	Школа № 536	Школа № 536	data.mos
138	4067	55.75833973	37.78840046	4206585.497099505	7510457.576990834	Ул. Металлургов	Ул. Металлургов	data.mos
139	4037	55.63935559	37.60230792	4185869.770306278	7486954.003356404	Чертановский пруд	Чертановский пруд	data.mos
140	4014	55.78780647	37.67022664	4193430.447632009	7516289.37414377	Москва - 2 - тов.	Москва - 2 - тов.	data.mos
141	4038	55.64370888	37.59475958	4185029.4929411435	7487812.672489629	Школа № 536	Школа № 536	data.mos
142	4015	55.78723151	37.67455039	4193911.7652803264	7516175.54094838	Ул. Шумкина, 26	Ул. Шумкина, 26	data.mos
143	4070	55.79339619	37.80597939	4208542.374635795	7517396.139902516	К/т «Первомайский»	К/т «Первомайский»	data.mos
144	4039	55.64755338	37.59862932	4185460.270427446	7488571.064181672	Азовская ул., 35	Азовская ул., 35	data.mos
145	3944	55.81762039	37.74323141	4201557.301453888	7522194.37333196	Плодоовощной комбинат	Плодоовощной комбинат	data.mos
146	4040	55.65176343	37.59856808	4185453.45322183	7489401.652114853	Метро «Севастопольская»	Метро «Севастопольская»	data.mos
147	4238	55.67848646	37.5949708	4185053.0058439886	7494675.84086521	Ул. Ремизова	Ул. Ремизова	data.mos
148	4248	55.6750160666	37.5906384884	4184570.7351227193	7493990.703419389	К/т «Таллин»	К/т «Таллин»	data.mos
149	4042	55.65705717	37.59772679	4185359.8012474207	7490446.164701998	Поликлиника	Поликлиника	data.mos
150	4250	55.66249636	37.59804639	4185395.378956678	7491519.523288808	Одесская ул.	Одесская ул.	data.mos
151	4043	55.65891864	37.59299848	4184833.448185907	7490813.486582719	Одесская ул.	Одесская ул.	data.mos
152	4251	55.64498635	37.60024228	4185639.824313316	7488064.666476993	Черноморский бульв., 17	Черноморский бульв., 17	data.mos
153	4050	55.67315429	37.65796175	4192065.126322573	7493623.169889691	Школа самбо	Школа самбо	data.mos
154	4051	55.6707452857	37.6545296554	4191683.0672993464	7493147.634033048	Интернат	Интернат	data.mos
155	4252	55.64468747	37.60626059	4186309.779517951	7488005.708611948	Симферопольский бульв.	Симферопольский бульв.	data.mos
156	4052	55.66809569	37.65542903	4191783.1852218513	7492624.639401795	Коломенский пр.	Коломенский пр.	data.mos
157	4116	55.82429743	37.82515812	4210677.341093456	7523517.460032195	Хабаровская ул., 20	Хабаровская ул., 20	data.mos
158	13454	55.75738405	37.59379993	4184922.6651918036	7510268.511027073	Ножовый пер.	Ножовый пер.	data.mos
159	4121	55.8230278	37.80240199	4208144.140289431	7523265.859427047	Уральская ул., 23	Уральская ул., 23	data.mos
160	4053	55.66565411	37.64661639	4190802.166624507	7492142.735628116	Электромеханический колледж	Электромеханический колледж	data.mos
161	4125	55.79891014	37.79900687	4207766.197259849	7518488.058821811	Верхняя Первомайская ул.	Верхняя Первомайская ул.	data.mos
162	4054	55.664438199	37.6405731274	4190129.4337091455	7491902.7579422025	Больница им. Юдина	Больница им. Юдина	data.mos
163	4126	55.79702218	37.79321497	4207121.445901124	7518114.171641848	7-я Парковая ул.	7-я Парковая ул.	data.mos
164	4055	55.6661783707	37.6497491494	4191150.903805693	7492246.208387848	Коломенский пр., 8	Коломенский пр., 8	data.mos
165	4128	55.7969154	37.78390659	4206085.241779414	7518093.025722144	3-я Парковая ул.	3-я Парковая ул.	data.mos
166	4129	55.795555045055	37.7824338238505	4205921.294201594	7517823.636186805	1-я Прядильная ул.	1-я Прядильная ул.	data.mos
167	4130	55.79231927	37.78310985	4205996.549088319	7517182.897159142	Первомайская ул.	Первомайская ул.	data.mos
168	4131	55.79627069	37.7846629	4206169.433823496	7517965.3533644555	3-я Парковая ул.	3-я Парковая ул.	data.mos
169	4132	55.7963304	37.78855985	4206603.240313143	7517977.177687362	5-я Парковая ул.	5-я Парковая ул.	data.mos
170	4133	55.79641061	37.79444659	4207258.549212375	7517993.0616371855	7-я Парковая ул.	7-я Парковая ул.	data.mos
171	4166	55.77396007	37.67832873	4194332.36816517	7513548.467730214	Бакунинская улица	Бакунинская улица	data.mos
172	4134	55.79760594	37.79940346	4207810.345456703	7518229.776170154	Измайловский бульв.	Измайловский бульв.	data.mos
173	4102	55.82086349	37.79812225	4207667.721811904	7522836.980403742	Уральская ул., 19	Уральская ул., 19	data.mos
174	4135	55.79958172	37.79934385	4207803.709701857	7518621.0613243235	Верхняя Первомайская ул.	Верхняя Первомайская ул.	data.mos
175	4142	55.8004352	37.81877639	4209966.930159477	7518790.0913710985	15-я Парковая ул., 24	15-я Парковая ул., 24	data.mos
176	4143	55.79734079	37.81755038	4209830.45135057	7518177.267149196	Управа района Восточное Измайлово	Управа района Восточное Измайлово	data.mos
177	4144	55.7973014523	37.8135029913	4209379.8981014425	7518169.476932193	Моск. театр Теней	Моск. театр Теней	data.mos
178	4171	55.77916302	37.64603024	4190736.9167049783	7514578.281791583	Пантелеевская ул.	Пантелеевская ул.	data.mos
179	4147	55.79318347	37.78309673	4205995.088576599	7517354.018389672	Первомайская ул.	Первомайская ул.	data.mos
180	4173	55.7804434	37.6345373	4189457.528476461	7514831.727050908	Метро «Проспект Мира»	Метро «Проспект Мира»	data.mos
181	4148	55.7948361950067	37.782805661588	4205962.68698919	7517681.286933145	1-я Прядильная ул.	1-я Прядильная ул.	data.mos
182	4174	55.77835742	37.62946014	4188892.3416105844	7514418.821290622	Ул. Щепкина	Ул. Щепкина	data.mos
183	4149	55.7965311	37.79992668	4207868.590040675	7518016.922278574	Измайловский бульв.	Измайловский бульв.	data.mos
184	4150	55.79659681	37.80616127	4208562.62142478	7518029.934864629	11-я Парковая ул.	11-я Парковая ул.	data.mos
185	4179	55.78262541	37.61100272	4186837.671014827	7515263.664960319	Ул. Достоевского	Ул. Достоевского	data.mos
186	4182	55.78114054	37.6091626	4186632.829793428	7514969.726169475	Селезневская ул.	Селезневская ул.	data.mos
187	4151	55.79667511	37.81316609	4209342.39442028	7518045.440683716	Моск. театр Теней	Моск. театр Теней	data.mos
188	4183	55.77980706	37.61136832	4186878.369420661	7514705.765469911	Никоновский пер.	Никоновский пер.	data.mos
189	4152	55.79673513	37.81784216	4209862.932151592	7518057.326519148	Управа района Восточное Измайлово	Управа района Восточное Измайлово	data.mos
190	4186	55.7782049	37.62877386	4188815.945270444	7514388.631845954	Ул. Щепкина	Ул. Щепкина	data.mos
191	4154	55.80121452	37.81904181	4209996.476578724	7518944.437410864	15-я Парковая ул., 26	15-я Парковая ул., 26	data.mos
192	4192	55.7768794068	37.6727171901	4193707.694400936	7514126.271861677	Поликлиника	Поликлиника	data.mos
193	4156	55.79710521	37.79840516	4207699.2152090445	7518130.614327667	Театр Мимики и Жеста	Театр Мимики и Жеста	data.mos
194	4196	55.76671146	37.67976962	4194492.767306259	7512113.987622837	Денисовский пер.	Денисовский пер.	data.mos
195	4214	55.8161096	37.7785018	4205483.583308769	7521895.034725454	Ул. Бирюсинка	Ул. Бирюсинка	data.mos
196	4197	55.7641647602	37.6801475785	4194534.84145402	7511610.066005564	МГТУ им. Баумана	МГТУ им. Баумана	data.mos
197	4215	55.81127219	37.77308169	4204880.219423526	7520936.658332993	10-й автобусный парк	10-й автобусный парк	data.mos
198	4161	55.76297392	37.68229047	4194773.387044625	7511374.442883417	Лефортовская наб.	Лефортовская наб.	data.mos
199	4162	55.76497022	37.68034464	4194556.778239855	7511769.44071539	МГТУ им. Баумана	МГТУ им. Баумана	data.mos
200	4216	55.80853881	37.76280331	4203736.035395746	7520395.180125878	Тарный з-д	Тарный з-д	data.mos
201	4163	55.76595064	37.68013782	4194533.75514277	7511963.438890855	Денисовский пер.	Денисовский пер.	data.mos
202	4202	55.81980488	37.82596886	4210767.592257422	7522627.215250533	Алтайская ул.	Алтайская ул.	data.mos
203	4220	55.8116184	37.77502795	4205096.876095677	7521005.2446936	10-й автобусный парк	10-й автобусный парк	data.mos
204	4164	55.76965194	37.67945903	4194458.192585614	7512695.868422812	Аптекарский пер.	Аптекарский пер.	data.mos
205	4221	55.81923428	37.78159379	4205827.782061107	7522514.1523751095	2-й Иртышский пр.	2-й Иртышский пр.	data.mos
206	4203	55.81751074	37.82276064	4210410.454840669	7522172.6475665495	Детская стоматологическая п-ка № 38	Детская стоматологическая п-ка № 38	data.mos
207	4222	55.81992659	37.78479557	4206184.202580339	7522651.331978522	Черницынский пр.	Черницынский пр.	data.mos
208	4204	55.81736083	37.81704597	4209774.300686219	7522142.944888664	Гольяново	Гольяново	data.mos
209	4205	55.81727982	37.81441317	4209481.218730858	7522126.893879419	Церковь Зосимы и Савватия	Церковь Зосимы и Савватия	data.mos
210	4223	55.81662697	37.78634635	4206356.834620271	7521997.541915759	Иркутская ул.	Иркутская ул.	data.mos
211	4285	55.76604085	37.83249816	4211494.43060866	7511981.289215914	Саянская ул.	Саянская ул.	data.mos
212	4206	55.81652185	37.8116158	4209169.816926897	7521976.714243259	Аптека	Аптека	data.mos
213	4286	55.76415921	37.83240047	4211483.555807604	7511608.967810079	МФЦ Ивановское	МФЦ Ивановское	data.mos
214	4224	55.81667197	37.79394307	4207202.49762237	7522006.457888651	Байкальская ул., 16	Байкальская ул., 16	data.mos
215	4287	55.76106471	37.83221243	4211462.623290555	7510996.696029598	Ул. Молостовых, 8	Ул. Молостовых, 8	data.mos
216	4207	55.8130596	37.81194702	4209206.688168637	7521290.761959633	Муз. школа	Муз. школа	data.mos
217	4225	55.81673417	37.79980077	4207854.57380359	7522018.781761491	Черницыно	Черницыно	data.mos
218	4289	55.75490527	37.83183005	4211420.056943665	7509778.145742335	Предприятие № 12 Всероссийского Общества Слепых	Предприятие № 12 Всероссийского Общества Слепых	data.mos
219	4227	55.81700232	37.81222646	4209237.795287145	7522071.911351986	Аптека	Аптека	data.mos
220	4211	55.81795324	37.78556924	4206270.3271307815	7522260.3237390155	Иркутская ул.	Иркутская ул.	data.mos
221	4290	55.7499653	37.82892338	4211096.487919361	7508800.987849939	Ул. Молостовых	Ул. Молостовых	data.mos
222	4228	55.81718225	37.81759516	4209835.436237368	7522107.561779944	Гольяново	Гольяново	data.mos
223	4229	55.8173538	37.82349092	4210491.749238406	7522141.551990229	Детская стоматологическая п-ка № 38	Детская стоматологическая п-ка № 38	data.mos
224	4212	55.81969467	37.78553429	4206266.436514578	7522605.377302373	Черницынский пр.	Черницынский пр.	data.mos
225	4291	55.75079307	37.82332277	4210473.03086603	7508964.717458602	Зеленый просп., 85	Зеленый просп., 85	data.mos
226	4331	55.754284258	37.8396268903	4212287.997235659	7509655.298767055	Ул. Сталеваров, 22	Ул. Сталеваров, 22	data.mos
227	4213	55.81927079	37.78051863	4205708.095797386	7522521.386685046	2-й Иртышский пр.	2-й Иртышский пр.	data.mos
228	4292	55.75147337	37.81912868	4210006.146902888	7509099.280689665	Метро «Новогиреево»	Метро «Новогиреево»	data.mos
229	4232	55.64545211	37.60687417	4186378.0829311125	7488156.544432305	Симферопольский бульв.	Симферопольский бульв.	data.mos
230	4293	55.74979124	37.81608473	4209667.295938889	7508766.559917358	Метро «Новогиреево»	Метро «Новогиреево»	data.mos
231	4233	55.64545858	37.60229543	4185868.3799258377	7488157.820741894	Черноморский бульв., 17	Черноморский бульв., 17	data.mos
232	4234	55.65906829	37.59422472	4184969.9525982975	7490843.017615456	Болотниковская ул.	Болотниковская ул.	data.mos
233	4304	55.71655708	37.81905841	4209998.32448227	7502195.872558232	Метро «Выхино»	Метро «Выхино»	data.mos
234	4316	55.75036977	37.82471367	4210627.865145774	7508880.989970726	Зеленый просп., 85	Зеленый просп., 85	data.mos
235	4235	55.66400331	37.60012953	4185627.273040728	7491816.928095446	Одесская ул.	Одесская ул.	data.mos
236	4237	55.6754811223	37.5916673067	4184685.262651994	7494082.51284806	К/т «Таллин»	К/т «Таллин»	data.mos
237	4317	55.74958724	37.83001594	4211218.111142223	7508726.210243595	Ул. Молостовых	Ул. Молостовых	data.mos
238	4400	55.75011322	37.80043469	4207925.141455194	7508830.245581774	К/т «Березка»	К/т «Березка»	data.mos
239	4318	55.7513491374	37.8319895728	4211437.814940532	7509074.707326137	Ул. Молостовых, 19	Ул. Молостовых, 19	data.mos
240	4402	55.7587087297	37.7953382971	4207357.8135926835	7510530.578904405	Федеративный просп.	Федеративный просп.	data.mos
241	4319	55.75574718	37.8323246	4211475.109997837	7509944.693307562	Предприятие № 12 Всероссийского Общества Слепых	Предприятие № 12 Всероссийского Общества Слепых	data.mos
242	4321	55.7619913235	37.8326397454	4211510.191823292	7511180.028886757	Ул. Молостовых, 8	Ул. Молостовых, 8	data.mos
243	4403	55.76040476	37.79418271	4207229.174225145	7510866.125885977	Новогиреевская ул.	Новогиреевская ул.	data.mos
244	4323	55.76695018	37.8334824	4211603.995704277	7512161.225411011	Саянская ул.	Саянская ул.	data.mos
245	4404	55.76430045	37.79127315	4206905.283487512	7511636.9144426435	Клинический научный центр	Клинический научный центр	data.mos
246	4406	55.76269709	37.77385258	4204966.034505784	7511319.669521453	К/т «Слава»	К/т «Слава»	data.mos
247	4326	55.76224856	37.83979366	4212306.561953742	7511230.924560516	Ул. Сталеваров, 10	Ул. Сталеваров, 10	data.mos
248	4327	55.75716562	37.83952646	4212276.817385802	7510225.298804543	Школа	Школа	data.mos
249	4328	55.75374963	37.83931311	4212253.06737244	7509549.541616211	Ул. Сталеваров, 22	Ул. Сталеваров, 22	data.mos
250	4332	55.75736909	37.83982464	4212310.010631567	7510265.551467786	Школа	Школа	data.mos
251	4333	55.7627653714	37.8401161901	4212342.465840239	7511333.17958841	Ул. Сталеваров, 10	Ул. Сталеваров, 10	data.mos
252	4335	55.76755711	37.83568914	4211849.648877391	7512281.325703058	Ивановское	Ивановское	data.mos
253	4342	55.7229034269	37.8255435989	4210720.252408316	7503450.169435243	Пл. Амилкара Кабрала	Пл. Амилкара Кабрала	data.mos
254	4344	55.71650222	37.81923996	4210018.534535824	7502185.030874172	Метро «Выхино»	Метро «Выхино»	data.mos
255	4345	55.7237154306	37.8269367517	4210875.33746861	7503610.669178914	Пл. Амилкара Кабрала	Пл. Амилкара Кабрала	data.mos
256	4357	55.74350971	37.82061696	4210171.821474646	7507524.217044418	Платф. Новогиреево	Платф. Новогиреево	data.mos
257	4358	55.74404603	37.82180223	4210303.765127499	7507630.281056823	Платф. Новогиреево	Платф. Новогиреево	data.mos
258	4359	55.74473469	37.82587748	4210757.419882354	7507766.474354332	Кетчерская ул., 8	Кетчерская ул., 8	data.mos
259	4360	55.74405964	37.83004246	4211221.063335118	7507632.972624136	Кетчерская ул.	Кетчерская ул.	data.mos
260	4361	55.74156549	37.83061934	4211285.281322966	7507139.735354332	Ул. Старый Гай, 1	Ул. Старый Гай, 1	data.mos
261	4362	55.7379281093	37.8282655371	4211023.257182711	7506420.471963333	Поликлиника	Поликлиника	data.mos
262	4363	55.75781587	37.82638181	4210813.5616411455	7510353.939116125	Ивановский парк	Ивановский парк	data.mos
263	4367	55.75741327	37.82807024	4211001.516808986	7510274.291666873	Ивановский парк	Ивановский парк	data.mos
264	4369	55.70897751	37.66235117	4192553.754321851	7500698.1075337045	Автозаводская ул.	Автозаводская ул.	data.mos
265	4493	55.74615652	37.82438457	4210591.229901354	7508047.671103527	Фрязевская ул.	Фрязевская ул.	data.mos
266	4374	55.65717943	37.61919317	4187749.4277381953	7490470.289600888	Болотниковская ул.	Болотниковская ул.	data.mos
267	4387	55.75073036	37.83159055	4211393.395925621	7508952.313548771	Ул. Молостовых	Ул. Молостовых	data.mos
268	4528	55.75210611	37.81347949	4209377.281948694	7509224.438666724	Метро «Новогиреево»	Метро «Новогиреево»	data.mos
269	4529	55.75287053	37.80808672	4208776.961538329	7509375.646072937	Зелёный проспект, 65	Зелёный проспект, 65	data.mos
270	4439	55.74373536	37.81205437	4209218.638315975	7507568.841986848	Платф. Новогиреево	Платф. Новогиреево	data.mos
271	4530	55.75348724	37.80371464	4208290.263819022	7509497.637609494	Мартеновская ул.	Мартеновская ул.	data.mos
272	4442	55.7463667929	37.8266680966	4210845.430919679	7508089.25785623	Фрязевская ул.	Фрязевская ул.	data.mos
273	4457	55.75390004	37.7534124	4202690.64407646	7509579.294743083	Ж.д. переезд	Ж.д. переезд	data.mos
274	4532	55.74469546	37.81673633	4209739.831719089	7507758.715943037	Платф. Новогиреево	Платф. Новогиреево	data.mos
275	4458	55.7566159458	37.7517565094	4202506.311178059	7510116.557285735	Метро «Ш. Энтузиастов»	Метро «Ш. Энтузиастов»	data.mos
276	4533	55.76760207	37.83811803	4212120.031675383	7512290.222535107	Ивановское	Ивановское	data.mos
277	4535	55.77465731	37.83538282	4211815.5494909715	7513686.463684674	Ул. Сталеваров	Ул. Сталеваров	data.mos
278	4542	55.7736033445	37.8318702945	4211424.536940913	7513477.866487774	Ш. Энтузиастов, 98	Ш. Энтузиастов, 98	data.mos
279	4546	55.74430657	37.81717749	4209788.941425648	7507681.806638489	Платф. Новогиреево	Платф. Новогиреево	data.mos
280	4488	55.74474194	37.79936283	4207805.822545792	7507767.908168133	Ул. Новотетерки	Ул. Новотетерки	data.mos
281	4547	55.74484875	37.81422392	4209460.151517225	7507789.031737225	Свободный просп.	Свободный просп.	data.mos
282	4427	55.74790415	37.80532883	4208469.954627865	7508393.315685058	Центр госуслуг	Центр госуслуг	data.mos
283	4421	55.76499617	37.79029256	4206796.124708034	7511774.575444418	Клинический научный центр	Клинический научный центр	data.mos
284	4731	55.78847645	37.74993978	4202304.073786342	7516422.021950395	Метро «Партизанская»	Метро «Партизанская»	data.mos
285	4589	55.74614198	37.77569544	4205171.180742586	7508044.795461242	Центр физической культуры и спорта	Центр физической культуры и спорта	data.mos
286	4710	55.81812993	37.76811245	4204327.046157096	7522295.333063685	Тарная ф-ка	Тарная ф-ка	data.mos
287	4591	55.74539955	37.78883106	4206633.43127224	7507897.963109769	2-я Владимирская ул.	2-я Владимирская ул.	data.mos
288	4712	55.8246228961	37.7587587002	4203285.791492351	7523581.958465988	Монтажная ул.	Монтажная ул.	data.mos
289	4593	55.77697737	37.7626867	4203723.054429925	7514145.661790522	Главная ал.	Главная ал.	data.mos
290	4634	55.7542742	37.77692313	4205307.846568238	7509653.309135806	Дворец творчества молодежи	Дворец творчества молодежи	data.mos
291	4713	55.82264089	37.75491258	4202857.643350159	7523189.187705649	Консультативно-диагностический центр	Консультативно-диагностический центр	data.mos
292	4594	55.77684944	37.75767325	4203164.959728807	7514120.340520458	Детский городок	Детский городок	data.mos
293	4595	55.77659044	37.74798803	4202086.805970186	7514069.076732522	Измайловский парк	Измайловский парк	data.mos
294	4656	55.82150642	37.82436525	4210589.079208791	7522964.380729603	Уссурийская ул.	Уссурийская ул.	data.mos
295	4714	55.82067214	37.75100676	4202422.849456629	7522799.0636927625	Тагильская ул.	Тагильская ул.	data.mos
296	4601	55.77671297	37.75729234	4203122.5570215685	7514093.329014135	Детский городок	Детский городок	data.mos
297	4715	55.8174447	37.74363445	4201602.167661458	7522159.562602496	Плодоовощной комбинат	Плодоовощной комбинат	data.mos
298	4602	55.77685953	37.76394322	4203862.929596496	7514122.3376378575	Главная ал.	Главная ал.	data.mos
299	4717	55.82362434	37.75718729	4203110.862909061	7523384.073809668	Консультативно-диагностический центр	Консультативно-диагностический центр	data.mos
300	4606	55.7460973	37.78056821	4205713.615017739	7508035.958900053	Перовский ЗАГС	Перовский ЗАГС	data.mos
301	4718	55.82486959	37.75983134	4203405.197208692	7523630.846774739	Монтажная ул.	Монтажная ул.	data.mos
302	4719	55.82648992	37.7629761	4203755.27029056	7523951.961704131	Детские ясли-сад	Детские ясли-сад	data.mos
303	4720	55.82551992	37.76575738	4204064.880963913	7523759.726736482	Открытое ш., 26	Открытое ш., 26	data.mos
304	4664	55.81696838	37.80225678	4208127.975586174	7522065.186669054	Детская п-ка	Детская п-ка	data.mos
305	4607	55.74567351	37.77425666	4205011.016485623	7507952.144580776	Центр физической культуры и спорта	Центр физической культуры и спорта	data.mos
306	4721	55.82075006	37.76359563	4203824.236054691	7522814.503806757	Ул. Николая Химушина	Ул. Николая Химушина	data.mos
307	4665	55.81708411	37.80661373	4208612.9890415855	7522088.116792024	Аптека	Аптека	data.mos
308	4608	55.74280075	37.77250072	4204815.546138959	7507384.013542058	К/т «Владивосток»	К/т «Владивосток»	data.mos
309	4723	55.81768032	37.76835511	4204354.058944732	7522206.247731943	Тарная ф-ка	Тарная ф-ка	data.mos
310	4609	55.739465	37.77111137	4204660.8844044255	7506724.371818584	Перовский парк	Перовский парк	data.mos
311	4666	55.8112753622381	37.8182055600737	4209903.385662751	7520937.286770379	15-я Парковая ул.	15-я Парковая ул.	data.mos
312	4610	55.82291392	37.80439218	4208365.687226813	7523243.292405592	Уральская ул., 23	Уральская ул., 23	data.mos
313	4726	55.81048327	37.78142986	4205809.533456981	7520780.370638857	Щелковское ш.	Щелковское ш.	data.mos
314	4667	55.8121678975287	37.8287043596443	4211072.106684891	7521114.104834329	Щелковское ш.	Щелковское ш.	data.mos
315	4611	55.75350863	37.80291418	4208201.157019421	7509501.868804562	Мартеновская ул.	Мартеновская ул.	data.mos
316	4668	55.8081634	37.82944791	4211154.878331867	7520320.814974925	16-я Парковая ул., 45	16-я Парковая ул., 45	data.mos
317	4612	55.75315968	37.79797218	4207651.016095921	7509432.842655917	Новогиреевская ул., 37	Новогиреевская ул., 37	data.mos
318	4614	55.75227595	37.79260527	4207053.574407588	7509258.03390252	Перово поле	Перово поле	data.mos
319	4669	55.80781735	37.82979693	4211193.731060543	7520252.266396012	16-я Парковая ул., 45	16-я Парковая ул., 45	data.mos
320	4670	55.81207354	37.82956176	4211167.5520558935	7521095.411694913	Щелковское ш.	Щелковское ш.	data.mos
321	4672	55.8115583172895	37.817741032134	4209851.674649045	7520993.341890111	15-я Парковая ул.	15-я Парковая ул.	data.mos
322	4674	55.81684854	37.80419221	4208343.426668239	7522041.4422845505	Детская п-ка	Детская п-ка	data.mos
323	4680	55.8131437552	37.8332468341	4211577.772628242	7521307.434339236	МКАД	МКАД	data.mos
324	4682	55.78075057	37.84187711	4212538.490546835	7514892.531160752	Шоссе Энтузиастов	Шоссе Энтузиастов	data.mos
325	4627	55.75062621	37.77961005	4205606.953134441	7508931.712935695	Зеленый просп.	Зеленый просп.	data.mos
326	4628	55.75495024	37.77698679	4205314.933167023	7509787.041666476	Дворец творчества молодежи	Дворец творчества молодежи	data.mos
327	4683	55.74994394	37.83090364	4211316.9294542	7508796.762973004	Ул. Молостовых	Ул. Молостовых	data.mos
328	4629	55.75692547	37.77569057	4205170.638616666	7510177.789972279	Ул. Металлургов	Ул. Металлургов	data.mos
329	4684	55.73803085	37.8162837	4209689.445177971	7506440.787207739	Вешняковская ул.	Вешняковская ул.	data.mos
330	4630	55.7601812	37.77376065	4204955.800904994	7510821.8953675525	Спортклуб «Луч»	Спортклуб «Луч»	data.mos
331	4685	55.73317441	37.81173258	4209182.816817032	7505480.566401411	Музей «Кусково»	Музей «Кусково»	data.mos
332	4632	55.75948546	37.77369696	4204948.710966626	7510684.247406497	Спортклуб «Луч»	Спортклуб «Луч»	data.mos
333	4633	55.75674346	37.7753731	4205135.298017924	7510141.783160867	Ул. Металлургов	Ул. Металлургов	data.mos
334	4686	55.72907409	37.80627452	4208575.228357114	7504669.939501331	Ул. Молдагуловой	Ул. Молдагуловой	data.mos
335	4688	55.7251132	37.80044692	4207926.502892566	7503886.958533439	Аллея Первой Маёвки	Аллея Первой Маёвки	data.mos
336	4689	55.72099377	37.79008096	4206772.569503783	7503072.72194017	Ул. Паперника, 17	Ул. Паперника, 17	data.mos
337	4692	55.71925996	37.78508655	4206216.59432577	7502730.046920712	Театр Чихачева	Театр Чихачева	data.mos
338	4698	55.73768291	37.81643262	4209706.022876541	7506371.9881443195	Вешняковская ул.	Вешняковская ул.	data.mos
339	4700	55.7746929492	37.8369056958	4211985.075249569	7513693.517370146	Ул. Сталеваров	Ул. Сталеваров	data.mos
340	4701	55.7807784	37.84272043	4212632.368499811	7514898.04011557	Шоссе Энтузиастов	Шоссе Энтузиастов	data.mos
341	4703	55.8134710625	37.8325858814	4211504.195710239	7521372.27905945	МКАД	МКАД	data.mos
342	4709	55.81505475	37.77135854	4204688.3992429655	7521686.0401463015	Монтажная ул., 7	Монтажная ул., 7	data.mos
343	4587	55.7397276	37.7715805	4204713.1077171415	7506776.298700456	Перовский парк	Перовский парк	data.mos
344	4758	55.73344338	37.81287911	4209310.447952812	7505533.744328803	Музей «Кусково»	Музей «Кусково»	data.mos
345	4760	55.73210046	37.83115973	4211345.4372625975	7505268.239923421	15-я гор. б-ца	15-я гор. б-ца	data.mos
346	4761	55.73372735	37.83801045	4212108.055924564	7505589.888296518	Реутовская ул., 22	Реутовская ул., 22	data.mos
347	4762	55.73669397	37.83837213	4212148.3179579945	7506176.4458653815	Реутовская ул., 16	Реутовская ул., 16	data.mos
348	4763	55.74096658	37.83664942	4211956.54675801	7507021.3010075195	Реутовская ул., 6	Реутовская ул., 6	data.mos
349	4769	55.75691007	37.80453555	4208381.647102208	7510174.743402972	Федеративный просп., 11	Федеративный просп., 11	data.mos
350	4770	55.72286665	37.80065354	4207949.503725754	7503442.9002333	Платф. Вешняки	Платф. Вешняки	data.mos
351	4771	55.7208135	37.80611827	4208557.834686676	7503037.092168508	Ул. Красный Казанец	Ул. Красный Казанец	data.mos
352	4779	55.5898257	37.54224727	4179183.8493315647	7477191.141901085	Пр. Карамзина, 13	Пр. Карамзина, 13	data.mos
353	4780	55.59053654	37.53926053	4178851.366955633	7477331.168747894	Пр. Карамзина, 9	Пр. Карамзина, 9	data.mos
354	4781	55.59119386	37.536481	4178541.9510913887	7477460.655061749	Пр. Карамзина, 5	Пр. Карамзина, 5	data.mos
355	4782	55.59334579	37.53380706	4178244.2894521765	7477884.581698759	9-й мкр. Ясенева	9-й мкр. Ясенева	data.mos
356	4784	55.59710353	37.53488167	4178363.9144901778	7478624.905984911	Голубинская ул., 24	Голубинская ул., 24	data.mos
357	4785	55.59809994	37.53044992	4177870.574336855	7478821.223775098	Трансагентство - Стоматология	Трансагентство - Стоматология	data.mos
358	4787	55.60319027	37.53322596	4178179.601696077	7479824.22440903	Поликлиника	Поликлиника	data.mos
359	4799	55.65259917	37.56712731	4181953.482715281	7489566.543335887	Севастопольский просп., 81	Севастопольский просп., 81	data.mos
360	4800	55.6538895	37.5685199	4182108.5051249648	7489821.131923144	Спортшкола	Спортшкола	data.mos
361	4802	55.65959931	37.57462991	4182788.668326907	7490947.806825915	Перекопская ул.	Перекопская ул.	data.mos
362	4804	55.66322712	37.57786703	4183149.0228769435	7491663.741332837	Болотниковская ул.	Болотниковская ул.	data.mos
363	5041	55.80393368	37.37425242	4160482.7481736722	7519482.997223687	Мякинино	Мякинино	data.mos
364	4805	55.66145926	37.57598273	4182939.263560442	7491314.852595767	Префектура ЮЗАО	Префектура ЮЗАО	data.mos
365	4806	55.65934746	37.57376166	4182692.0151790255	7490898.107649307	Перекопская ул.	Перекопская ул.	data.mos
366	4904	55.78045163	37.82671353	4210850.488542631	7514833.356168021	Ул. Чечулина, 14	Ул. Чечулина, 14	data.mos
367	4905	55.77807599	37.81908654	4210001.455899546	7514363.115800451	Б. Купавенский пр.	Б. Купавенский пр.	data.mos
368	4807	55.65543625	37.56950996	4182218.7181000193	7490126.324521214	Ул. Каховка	Ул. Каховка	data.mos
369	4909	55.77595594	37.81972899	4210072.973106407	7513943.49178817	Челябинская ул.	Челябинская ул.	data.mos
370	4809	55.6517437	37.56557534	4181780.7182051553	7489397.759435009	Севастопольский просп., 81	Севастопольский просп., 81	data.mos
371	4910	55.77900401	37.82142089	4210261.314552879	7514546.807083769	Б. Купавенский пр.	Б. Купавенский пр.	data.mos
372	4911	55.7806228	37.82818846	4211014.676999188	7514867.239110752	Ул. Чечулина, 14	Ул. Чечулина, 14	data.mos
373	4818	55.60342665	37.53037712	4177862.4702779246	7479870.803979874	Поликлиника	Поликлиника	data.mos
374	4819	55.59924352	37.52758497	4177551.649561707	7479046.543895661	Тарусская ул., 22	Тарусская ул., 22	data.mos
375	4933	55.58901459	37.54573506	4179572.1083383583	7477031.366180105	Пр. Карамзина	Пр. Карамзина	data.mos
376	4820	55.59775956	37.53075517	4177904.5546114193	7478754.15980737	Трансагентство - Стоматология	Трансагентство - Стоматология	data.mos
377	5006	55.79414659	37.79888375	4207752.491604143	7517544.73135632	Метро «Первомайская»	Метро «Первомайская»	data.mos
378	4944	55.73594202	37.70256917	4197030.801602575	7506027.766736715	МЦД Калитники	МЦД Калитники	data.mos
379	4822	55.59281052	37.53363217	4178224.8207864314	7477779.132225445	9-й мкр. Ясенева	9-й мкр. Ясенева	data.mos
380	5007	55.7930326	37.819138	4210007.184400543	7517324.144174831	Первомайская ул.	Первомайская ул.	data.mos
381	4953	55.73913859	37.66995901	4193400.655196688	7506659.827547424	Б. Андроньевская ул. - Покровский женский монастырь	Б. Андроньевская ул. - Покровский женский монастырь	data.mos
382	4823	55.5908573	37.53674205	4178571.0110444603	7477394.355402699	Пр. Карамзина, 5	Пр. Карамзина, 5	data.mos
383	4824	55.59014351	37.53973971	4178904.7090292308	7477253.746297783	Пр. Карамзина, 9	Пр. Карамзина, 9	data.mos
384	5009	55.7357904	37.41184215	4164667.217776329	7505997.788056533	Дом культуры	Дом культуры	data.mos
385	4825	55.58953211	37.54237889	4179198.5012029437	7477133.308976824	Пр. Карамзина, 13	Пр. Карамзина, 13	data.mos
386	5018	55.73607064	37.41217461	4164704.227054239	7506053.197891489	Дом культуры	Дом культуры	data.mos
387	4955	55.7367708228	37.6942824197	4196108.324778848	7506191.641727683	Современный Университет	Современный Университет	data.mos
388	4842	55.72325344	37.78905658	4206658.536043804	7503519.352224099	Яснополянская ул., 7	Яснополянская ул., 7	data.mos
389	5020	55.78196425	37.3584677	4158725.6011809576	7515132.783048011	Советская ул.	Советская ул.	data.mos
390	5023	55.72909593	37.41172655	4164654.349243193	7504674.257009903	Партизанская ул.	Партизанская ул.	data.mos
391	5024	55.72771574	37.41759744	4165307.893728497	7504401.414587952	МЦД Рабочий Посёлок	МЦД Рабочий Посёлок	data.mos
392	4968	55.77978067	37.81979395	4210080.204420528	7514700.541693539	Б. Купавенский пр.	Б. Купавенский пр.	data.mos
393	4743	55.74059301	37.83670783	4211963.048929467	7506947.42852639	Реутовская ул., 6	Реутовская ул., 6	data.mos
394	4969	55.78947034	37.81953119	4210050.954111127	7516618.80415901	Площадь Мазурина	Площадь Мазурина	data.mos
395	5025	55.74753454	37.40651389	4164074.0785863153	7508320.2132835705	Ул. Акад. Павлова, 26	Ул. Акад. Павлова, 26	data.mos
396	4744	55.73627819	37.83800792	4212107.774286252	7506094.235513192	Реутовская ул., 16	Реутовская ул., 16	data.mos
397	4970	55.79237921	37.81944653	4210041.529803038	7517194.765824567	Первомайская ул.	Первомайская ул.	data.mos
398	5026	55.7496397013	37.4096343366	4164421.4451128747	7508736.586676089	Рублевское ш.	Рублевское ш.	data.mos
399	4971	55.79449389	37.79887351	4207751.351692557	7517613.503396768	Метро «Первомайская»	Метро «Первомайская»	data.mos
400	4745	55.73342432	37.83768357	4212071.667809414	7505529.975973446	Реутовская ул., 22	Реутовская ул., 22	data.mos
401	5027	55.78187984	37.3588917	4158772.8006450543	7515116.073572966	Советская ул.	Советская ул.	data.mos
402	4973	55.79340307	37.81714041	4209784.813698929	7517397.502241861	15-я Парковая ул.	15-я Парковая ул.	data.mos
403	4746	55.73237715	37.8289032	4211094.241492037	7505322.942668686	15-я гор. б-ца	15-я гор. б-ца	data.mos
404	4903	55.7812072672	37.8299149815	4211206.872493411	7514982.934972647	Ул. Чечулина	Ул. Чечулина	data.mos
405	4974	55.78854438	37.81844166	4209929.668186324	7516435.471382986	Площадь Мазурина	Площадь Мазурина	data.mos
406	4747	55.73273193	37.81916562	4210010.259044878	7505393.084693821	Ал. Жемчуговой, 1	Ал. Жемчуговой, 1	data.mos
407	4978	55.74971751	37.40163168	4163530.5934551693	7508751.9766506255	Медучилище	Медучилище	data.mos
408	5032	55.61220501	37.54020941	4178956.9957940574	7481600.811741463	Ясногорская ул.	Ясногорская ул.	data.mos
409	4979	55.75117728	37.40385474	4163778.063362372	7509040.713846665	Ул. Марш. Тимошенко, 44	Ул. Марш. Тимошенко, 44	data.mos
410	5186	55.79447076	37.79995624	4207871.880644823	7517608.923195458	Метро «Первомайская»	Метро «Первомайская»	data.mos
411	5036	55.60358096	37.54356736	4179330.8010781663	7479901.211498999	Ул. Паустовского	Ул. Паустовского	data.mos
412	4981	55.7602065959	37.4025107374	4163628.4496773155	7510826.919839592	Школа	Школа	data.mos
413	5187	55.79708498	37.79449719	4207264.1819786085	7518126.608115427	7-я Парковая ул.	7-я Парковая ул.	data.mos
414	4982	55.7624902199	37.4049460013	4163899.54201461	7511278.738623112	Детская п-ка	Детская п-ка	data.mos
415	5188	55.79972428	37.79388797	4207196.363918427	7518649.294796102	7-я Парковая ул., 17	7-я Парковая ул., 17	data.mos
416	4983	55.77100224	37.39658597	4162968.907587278	7512963.089041841	Сосновка	Сосновка	data.mos
417	5189	55.80271561	37.79379834	4207186.386352468	7519241.740292453	Сиреневый бульв.	Сиреневый бульв.	data.mos
418	4989	55.7493424216	37.4007253398	4163429.7001256193	7508677.787274241	Медучилище	Медучилище	data.mos
419	5190	55.80907399	37.78759783	4206496.14873661	7520501.195434466	5-я Парковая ул., 57	5-я Парковая ул., 57	data.mos
420	5191	55.80854082	37.78190075	4205861.952692001	7520395.578289693	3-я Парковая ул., 54	3-я Парковая ул., 54	data.mos
421	5192	55.80421331	37.78211175	4205885.441104558	7519538.383181222	3-я Парковая ул., 44	3-я Парковая ул., 44	data.mos
422	5193	55.80257919	37.78187668	4205859.273231858	7519214.720746731	Пл. Викторио Кодовильи	Пл. Викторио Кодовильи	data.mos
423	5194	55.79884243	37.78204104	4205877.569703365	7518474.649378474	Верхняя Первомайская ул.	Верхняя Первомайская ул.	data.mos
424	5195	55.79924214	37.7824016	4205917.707058964	7518553.809198972	Верхняя Первомайская ул.	Верхняя Первомайская ул.	data.mos
425	5196	55.80257795	37.78241886	4205919.628433376	7519214.475150942	Пл. Викторио Кодовильи	Пл. Викторио Кодовильи	data.mos
426	5197	55.80462926	37.78236913	4205914.092515099	7519620.770603317	3-я Парковая ул., 44	3-я Парковая ул., 44	data.mos
427	5198	55.80892599	37.7822006	4205895.331841316	7520471.877553184	3-я Парковая ул., 54	3-я Парковая ул., 54	data.mos
428	5199	55.80876382	37.7873759	4206471.443602017	7520439.752810854	5-я Парковая ул., 57	5-я Парковая ул., 57	data.mos
429	5200	55.78798278	37.78515591	4206224.315445651	7516324.281135916	Метро «Измайловская»	Метро «Измайловская»	data.mos
430	5201	55.7883972	37.78475733	4206179.945723011	7516406.331305329	Метро «Измайловская»	Метро «Измайловская»	data.mos
431	5202	55.8023004	37.79354734	4207158.445160279	7519159.503483967	Сиреневый бульв.	Сиреневый бульв.	data.mos
432	5203	55.79859971	37.79364706	4207169.5459399	7518426.5807458665	7-я Парковая ул., 17	7-я Парковая ул., 17	data.mos
433	5076	55.76068491	37.57732241	4183088.3960558674	7510921.55288439	Метро «Краснопресненская»	Метро «Краснопресненская»	data.mos
434	5081	55.74860459	37.60962465	4186684.26496415	7508531.852381284	Боровицкая пл.	Боровицкая пл.	data.mos
435	5085	55.82308257	37.6414149	4190223.13940634	7523276.712943415	Метро «ВДНХ»	Метро «ВДНХ»	data.mos
436	2292	55.7166361	37.5940646	4184952.1281214324	7502211.488878732	Б-ца Святителя Алексия	Б-ца Святителя Алексия	data.mos
437	2294	55.72405544	37.60501139	4186170.7192100533	7503677.876048174	1-я гор. б-ца	1-я гор. б-ца	data.mos
438	2297	55.73434	37.61323346	4187085.995855719	7505711.017277959	1-й Бабьегородский пер.	1-й Бабьегородский пер.	data.mos
439	2298	55.7374524119	37.6151331132	4187297.4642826277	7506326.411504995	3-й Голутвинский пер.	3-й Голутвинский пер.	data.mos
440	2307	55.88410136	37.66197149	4192511.4885375868	7535378.026285284	Ул. Грекова, 4	Ул. Грекова, 4	data.mos
441	2309	55.89342648	37.66184908	4192497.861918719	7537229.069574753	Студеный пр.	Студеный пр.	data.mos
442	2310	55.8935256428	37.6570970631	4191968.8698171694	7537248.755854928	10-й кв. Медведкова	10-й кв. Медведкова	data.mos
443	2312	55.89284934	37.67075948	4193489.7631094833	7537114.493940285	Студеный пр., 38	Студеный пр., 38	data.mos
444	2316	55.88370365	37.66163753	4192474.312280441	7535299.090441249	Ул. Грекова, 4	Ул. Грекова, 4	data.mos
445	2317	55.88386123	37.66827117	4193212.765707347	7535330.36617439	Храм Серафима Саровского	Храм Серафима Саровского	data.mos
446	2319	55.8871866	37.69281939	4195945.461057628	7535990.399498243	Муз. школа	Муз. школа	data.mos
447	2320	55.88706165	37.69777252	4196496.840967061	7535965.597877948	Стартовая ул., 15	Стартовая ул., 15	data.mos
448	2321	55.88699457	37.70176554	4196941.341920189	7535952.283043426	Стартовая ул., 9 - Госпиталь	Стартовая ул., 9 - Госпиталь	data.mos
449	2322	55.88651037	37.70672974	4197493.954136385	7535856.173963389	Госпиталь	Госпиталь	data.mos
450	2326	55.86534954	37.5839583	4183827.0999516277	7531657.121808913	Алтуфьевское ш., 30	Алтуфьевское ш., 30	data.mos
451	2369	55.76353597	37.49120892	4173502.2861986356	7511485.650842285	Филевский бульв., 2	Филевский бульв., 2	data.mos
452	2328	55.82421875	37.60217633	4185855.1217744844	7523501.867900141	Ул. Кашенкин Луг	Ул. Кашенкин Луг	data.mos
453	2451	55.87136318	37.60889896	4186603.481522876	7532850.206528776	Школа	Школа	data.mos
454	2370	55.76346119	37.48756845	4173097.030931988	7511470.854679797	Универсам	Универсам	data.mos
455	2335	55.84406965	37.5857675	4184028.4991743714	7527436.750246013	Главный вход Ботанического сада	Главный вход Ботанического сада	data.mos
456	2452	55.87011061	37.60326425	4185976.2284749085	7532601.685877516	Ул. Бестужевых, 13	Ул. Бестужевых, 13	data.mos
457	2371	55.76338426	37.4844193	4172746.469157556	7511455.63314241	Филевский бульв., 12	Филевский бульв., 12	data.mos
458	2214	55.60662739	37.60703607	4186396.105556672	7480501.549507513	Поликлиника № 170	Поликлиника № 170	data.mos
459	2490	55.85732079	37.61003501	4186729.946030392	7530064.534347835	Отрадная ул.	Отрадная ул.	data.mos
460	2453	55.867996083	37.5963304397	4185204.360243055	7532182.163737357	Ул. Бестужевых	Ул. Бестужевых	data.mos
461	2374	55.7632193	37.48534073	4172849.0422759578	7511422.993898697	Филевский бульв., 12	Филевский бульв., 12	data.mos
462	2493	55.85934069	37.60039419	4185656.7348571625	7530465.171886782	Мкр. 4 «Д» Отрадного	Мкр. 4 «Д» Отрадного	data.mos
463	2456	55.87095328	37.6079638	4186499.3799878657	7532768.87796417	Школа	Школа	data.mos
464	2375	55.7633467	37.49244892	4173640.3223672197	7511448.201449898	Филевский бульв., 2	Филевский бульв., 2	data.mos
465	2494	55.85788534	37.59385654	4184928.966988177	7530176.508052741	Новый Иерусалим	Новый Иерусалим	data.mos
466	2376	55.76248359	37.4979626	4174254.102417217	7511277.426848139	Ул. Мясищева	Ул. Мясищева	data.mos
467	2495	55.85680646	37.58636126	4184094.596235224	7529962.522770343	Детская п-ка	Детская п-ка	data.mos
468	2377	55.76181971	37.50265149	4174776.0672644023	7511146.074386993	Новофилёвский пр.	Новофилёвский пр.	data.mos
469	2496	55.85630089	37.5861625	4184072.4703732342	7529862.249956471	Детская п-ка	Детская п-ка	data.mos
470	2497	55.86009397	37.59671561	4185247.2372047193	7530614.58671729	Ул. Санникова	Ул. Санникова	data.mos
471	2361	55.88121649	37.65289198	4191500.762107734	7534805.467503536	Управа района Северное Медведково	Управа района Северное Медведково	data.mos
472	2378	55.75742551	37.50214557	4174719.7485076208	7510276.713127131	Береговой пр., 4	Береговой пр., 4	data.mos
473	2498	55.86275106	37.59939225	4185545.199406557	7531141.649798746	Ул. Санникова, 17	Ул. Санникова, 17	data.mos
474	2379	55.75488872	37.50435747	4174965.976089306	7509774.871839102	Береговой пр.	Береговой пр.	data.mos
475	2499	55.86062254	37.60183172	4185816.7599647623	7530719.431529126	Мкр. 4 «Д» Отрадного	Мкр. 4 «Д» Отрадного	data.mos
476	2397	55.73422024	37.61264428	4187020.408638133	7505687.338997693	1-й Бабьегородский пер.	1-й Бабьегородский пер.	data.mos
477	2364	55.75160381	37.5077067	4175338.810667455	7509125.081968893	Б. Филевская ул.	Б. Филевская ул.	data.mos
478	2398	55.73104774	37.61188518	4186935.9060126725	7505060.116415285	Метро «Октябрьская» (радиальная)	Метро «Октябрьская» (радиальная)	data.mos
479	2365	55.7527796962	37.5042421546	4174953.1392376972	7509357.678382556	Школа	Школа	data.mos
480	2501	55.85127649	37.67154627	4193577.3481716444	7528865.80064472	Комбинат «Лира» - Пенсионный фонд	Комбинат «Лира» - Пенсионный фонд	data.mos
481	2400	55.72468394	37.60496098	4186165.107594522	7503802.108028681	1-я гор. б-ца	1-я гор. б-ца	data.mos
482	2366	55.7552153667	37.5050672516	4175044.9886155925	7509839.488995503	Береговой пр.	Береговой пр.	data.mos
483	2502	55.85426839	37.67211586	4193640.754640405	7529459.144870727	Электротехнический завод	Электротехнический завод	data.mos
484	2401	55.72133592	37.59988743	4185600.322592008	7503140.347212884	Ул. Акад. Петровского	Ул. Акад. Петровского	data.mos
485	2367	55.75765492	37.50205453	4174709.613981179	7510322.097842721	Береговой пр., 4	Береговой пр., 4	data.mos
486	2504	55.85991037	37.67412751	4193864.690494059	7530578.168965581	Ул. Коминтерна	Ул. Коминтерна	data.mos
487	2522	55.86185117	37.61241613	4186995.0110963094	7530963.142663778	Ул. Пестеля	Ул. Пестеля	data.mos
488	2402	55.71698562	37.59355962	4184895.914004971	7502280.563116686	Б-ца Святителя Алексия	Б-ца Святителя Алексия	data.mos
489	2505	55.86171826	37.67439758	4193894.7545489375	7530936.778254874	Ул. Летчика Бабушкина	Ул. Летчика Бабушкина	data.mos
490	2523	55.87036515	37.63371954	4189366.49584967	7532652.1881518215	Пр. Дежнева, 32	Пр. Дежнева, 32	data.mos
491	2404	55.70821658	37.57687443	4183038.527150382	7500547.759599696	Ленинский просп., 34	Ленинский просп., 34	data.mos
492	2524	55.87061599	37.6365272	4189679.043131191	7532701.9566475935	Полярная ул.	Полярная ул.	data.mos
493	2529	55.88267162	37.70617424	4197432.11615925	7535094.261146465	Таёжная ул.	Таёжная ул.	data.mos
494	2531	55.88389632	37.70781797	4197615.095345851	7535337.330688919	Челюскинская ул.	Челюскинская ул.	data.mos
495	2416	55.74598971	37.56445232	4181655.7041906044	7508014.680391475	2-й Брянский пер.	2-й Брянский пер.	data.mos
496	2417	55.746457	37.55507201	4180611.4928579214	7508107.098646962	Дорогомиловская Застава	Дорогомиловская Застава	data.mos
497	2422	55.73676553	37.51795934	4176480.129331542	7506190.595198034	Метро «Парк Победы»	Метро «Парк Победы»	data.mos
498	2359	55.87804895	37.64504162	4190626.864029991	7534176.85634636	Медведковский ЗАГС	Медведковский ЗАГС	data.mos
499	2532	55.8821822	37.70506826	4197308.9990288215	7534997.126771634	Таёжная ул.	Таёжная ул.	data.mos
500	2360	55.8799244924436	37.6463929596594	4190777.294472764	7534549.059155877	Раево	Раево	data.mos
501	2533	55.88062191	37.70251514	4197024.787010488	7534687.46678129	Центр образования	Центр образования	data.mos
502	2437	55.87172511	37.63795971	4189838.5094149467	7532922.018043546	МФЦ «Южное Медведково»	МФЦ «Южное Медведково»	data.mos
503	2441	55.86785569	37.67626446	4194102.57467991	7532154.31057585	Киноконцертный зал «Орион»	Киноконцертный зал «Орион»	data.mos
504	2543	55.86112212	37.61387748	4187157.68783418	7530818.527323806	Ул. Пестеля	Ул. Пестеля	data.mos
505	2546	55.86373863	37.62582621	4188487.814373406	7531337.5543804765	Ул. Мусоргского, 11	Ул. Мусоргского, 11	data.mos
506	2552	55.74246176	37.4247012	4166098.6806744146	7507316.975984115	Рублевское ш., 99	Рублевское ш., 99	data.mos
507	2553	55.74082435	37.42809514	4166476.4923469974	7506993.175317198	Рублевское ш., 91	Рублевское ш., 91	data.mos
508	2554	55.7390016	37.43187806	4166897.6050751093	7506632.739323367	Рублевское ш., 83 - Центр Лечения Слуха	Рублевское ш., 83 - Центр Лечения Слуха	data.mos
509	2566	55.73938212	37.43152939	4166858.791308254	7506707.983086977	Рублевское ш., 83 - Центр Лечения Слуха	Рублевское ш., 83 - Центр Лечения Слуха	data.mos
510	2568	55.74284166	37.42442933	4166068.416244453	7507392.103809752	Рублевское ш., 99	Рублевское ш., 99	data.mos
511	2510	55.85974121	37.67372436	4193819.8120413464	7530544.615594605	Ул. Коминтерна	Ул. Коминтерна	data.mos
512	2511	55.85655273	37.6725878	4193693.29076089	7529912.1987726465	Верхоянская ул.	Верхоянская ул.	data.mos
513	2512	55.85461631	37.67184855	4193610.9978273218	7529528.146239184	Электротехнический завод	Электротехнический завод	data.mos
514	2507	55.89273979	37.66218938	4192535.743941436	7537092.745924742	Студеный пр.	Студеный пр.	data.mos
515	2573	55.88620647	37.65588399	4191833.8311373824	7535795.853325462	Заревый пр., 19	Заревый пр., 19	data.mos
516	2575	55.85881956	37.62138677	4187993.6181731992	7530361.806241113	Ул. Мусоргского	Ул. Мусоргского	data.mos
517	2576	55.8579916	37.62394158	4188278.018321473	7530197.584004553	Отрадное	Отрадное	data.mos
518	2577	55.85343443	37.6259047	4188496.5518402383	7529293.751946619	Усадьба Свиблово	Усадьба Свиблово	data.mos
519	2581	55.848052609	37.6267062638	4188585.7815142935	7528226.501800773	Березовая ал.	Березовая ал.	data.mos
520	2583	55.85379903	37.62611284	4188519.721879052	7529366.059846222	Усадьба Свиблово	Усадьба Свиблово	data.mos
521	2588	55.86674174	37.61362565	4187129.6542468136	7531933.31288902	Дом творчества	Дом творчества	data.mos
522	2589	55.86337797	37.6144124	4187217.2348561953	7531266.009561801	Ул. Пестеля, 4	Ул. Пестеля, 4	data.mos
523	2590	55.86183177	37.61334972	4187098.9378597196	7530959.294418498	Ул. Пестеля	Ул. Пестеля	data.mos
524	2591	55.86473545	37.61481081	4187261.5856545223	7531535.298938513	Ул. Пестеля, 4	Ул. Пестеля, 4	data.mos
525	2592	55.8684251	37.62223691	4188088.2553251022	7532267.278859799	Северный бульв.	Северный бульв.	data.mos
526	2593	55.86633642	37.62521506	4188419.7814666084	7531852.9026097935	Юрловский пр.	Юрловский пр.	data.mos
527	2594	55.59468022	37.59088377	4184598.039745532	7478147.473871018	Ул. Акад. Янгеля	Ул. Акад. Янгеля	data.mos
528	2595	55.59657683	37.58807507	4184285.376691741	7478521.134873511	Чертаново Южное	Чертаново Южное	data.mos
529	2596	55.5989509	37.58842431	4184324.2539107054	7478988.888210249	Поликлиника	Поликлиника	data.mos
530	2597	55.60017548	37.58892945	4184380.4858382847	7479230.1732825255	ОВД «Чертаново Южное»	ОВД «Чертаново Южное»	data.mos
531	2598	55.60899713	37.59102749	4184614.0385827487	7480968.569338117	Чертановская ул., 44	Чертановская ул., 44	data.mos
532	2599	55.61193932	37.5917323	4184692.4976730547	7481548.444824445	Чертаново Центральное	Чертаново Центральное	data.mos
533	2600	55.61623051	37.59299208	4184832.7357411664	7482394.27238996	Детская стоматологическая п-ка	Детская стоматологическая п-ка	data.mos
534	2601	55.62329684	37.59548213	4185109.926839216	7483787.303806977	К/т «Ашхабад»	К/т «Ашхабад»	data.mos
535	2602	55.62849035	37.59899743	4185501.2482452015	7484811.294205287	Школьный парк	Школьный парк	data.mos
536	2603	55.63118209	37.60102877	4185727.37597963	7485342.070735217	Футбольная школа Чертаново	Футбольная школа Чертаново	data.mos
537	2604	55.63372921	37.60314508	4185962.96253119	7485844.363635587	Сумской пр.	Сумской пр.	data.mos
538	2521	55.85964663	37.61936566	4187768.629237162	7530525.855444125	Ул. Мусоргского	Ул. Мусоргского	data.mos
539	2509	55.8626325120522	37.6742079869026	4193873.649141878	7531118.133738633	Ул. Летчика Бабушкина	Ул. Летчика Бабушкина	data.mos
540	2605	55.63774302	37.60526029	4186198.426631311	7486635.954559666	Верхний Чертановский пруд	Верхний Чертановский пруд	data.mos
541	2795	55.8528844	37.60732466	4186428.231248521	7529184.6706356425	Отрадный пр.	Отрадный пр.	data.mos
542	2607	55.64306927	37.60569728	4186247.072135593	7487686.505981027	Балаклавский просп.	Балаклавский просп.	data.mos
543	2608	55.6451741	37.60565615	4186242.493564937	7488101.7027722625	Черноморский бульв.	Черноморский бульв.	data.mos
544	2699	55.86165333	37.56204502	4181387.7247804175	7530923.898586594	Торговый центр	Торговый центр	data.mos
545	2609	55.649414335	37.6055710425	4186233.019441374	7488938.195309529	Симферопольский бульв., 20	Симферопольский бульв., 20	data.mos
546	2610	55.65288042	37.60563747	4186240.4141168487	7489622.034657853	Метро «Каховская»	Метро «Каховская»	data.mos
547	2611	55.65634537	37.60558607	4186234.6922950223	7490305.710586987	Болотниковская улица	Болотниковская улица	data.mos
548	2731	55.60232431	37.6100442	4186730.9690565118	7479653.58612146	Россошанский пр.	Россошанский пр.	data.mos
549	2612	55.65841001	37.60862856	4186573.380732565	7490713.117435464	Москворецкий рынок	Москворецкий рынок	data.mos
550	2613	55.65619014	37.60520769	4186192.571226096	7490275.080563333	Болотниковская ул.	Болотниковская ул.	data.mos
551	2703	55.5990608863	37.5888243878	4184368.7903676797	7479010.559048718	Поликлиника	Поликлиника	data.mos
552	2732	55.60158587	37.61465078	4187243.77119641	7479508.078753568	3-й Дорожный пр., 6	3-й Дорожный пр., 6	data.mos
553	2614	55.65352634	37.60513109	4186184.044153101	7489749.477783454	Метро «Каховская»	Метро «Каховская»	data.mos
554	2733	55.60083385	37.6194515	4187778.1849022508	7479359.898302767	3-й Дорожный пр., 10	3-й Дорожный пр., 10	data.mos
555	2704	55.60054635	37.58917783	4184408.1353734075	7479303.249124326	ОВД «Чертаново Южное»	ОВД «Чертаново Южное»	data.mos
556	2615	55.64911174	37.60538678	4186212.507433702	7488878.497867036	Симферопольский бульв., 20	Симферопольский бульв., 20	data.mos
557	2736	55.60056459	37.6268494	4188601.715363191	7479306.843132914	Покровский парк	Покровский парк	data.mos
558	2705	55.60298674	37.58977667	4184474.797937275	7479784.118279518	Чертановская улица, 53	Чертановская улица, 53	data.mos
559	2738	55.6058081	37.62414466	4188300.625083663	7480340.093347041	Дорожная ул., 5	Дорожная ул., 5	data.mos
560	2616	55.64561675	37.60545188	4186219.7543325517	7488189.022335741	Черноморский бульв.	Черноморский бульв.	data.mos
561	2707	55.60771745	37.60167874	4185799.7303090603	7480716.371104535	Сквер «Родная гавань»	Сквер «Родная гавань»	data.mos
562	2617	55.64261869	37.6055104	4186226.2687491532	7487597.627892342	Балаклавский просп.	Балаклавский просп.	data.mos
563	2710	55.60006929	37.59802895	4185393.4375447584	7479209.2498418065	Техникум креативных индустрий	Техникум креативных индустрий	data.mos
564	2618	55.64014255	37.60545779	4186220.412230743	7487109.221019379	Метро «Чертановская»	Метро «Чертановская»	data.mos
565	3120	55.7606052825	37.6315085259	4189120.3668859215	7510905.798736027	Метро «Лубянка»	Метро «Лубянка»	data.mos
566	2619	55.63783765	37.60508089	4186178.4559146636	7486654.618167786	Верхний Чертановский пруд	Верхний Чертановский пруд	data.mos
567	2711	55.59770849	37.59688613	4185266.2194042895	7478744.097701061	Кировоградская ул., 25 - Российский Государственный Гуманитарный Университет	Кировоградская ул., 25 - Российский Государственный Гуманитарный Университет	data.mos
568	2740	55.60851545	37.61731573	4187540.4320734004	7480873.639292294	17-й автобусный парк	17-й автобусный парк	data.mos
569	2653	55.71412922	37.58964424	4184460.0558971087	7501716.08233694	Ул. Стасовой	Ул. Стасовой	data.mos
570	2620	55.6339017	37.60309472	4185957.356481634	7485878.379900703	Сумской пр.	Сумской пр.	data.mos
571	2744	55.60541806	37.62362178	4188242.418348317	7480263.229977529	Дорожная ул., 5	Дорожная ул., 5	data.mos
572	2717	55.60057411	37.59859273	4185456.197247278	7479308.718953849	Техникум креативных индустрий	Техникум креативных индустрий	data.mos
573	2623	55.62534363	37.59618363	4185188.0174620077	7484190.847686061	Сумская ул.	Сумская ул.	data.mos
574	2718	55.603052	37.59976893	4185587.131232349	7479796.977913965	Университет спорта и туризма	Университет спорта и туризма	data.mos
575	2745	55.60239714	37.62216659	4188080.42733851	7479667.937201012	Дорожная ул., 7	Дорожная ул., 7	data.mos
576	2625	55.61639525	37.59277378	4184808.434696326	7482426.745795003	Детская стоматологическая п-ка	Детская стоматологическая п-ка	data.mos
577	2746	55.60036715	37.62259065	4188127.633481775	7479267.939655132	Покровский парк	Покровский парк	data.mos
578	2719	55.60489526	37.6006785	4185688.3841015897	7480160.205410861	Кировоградская ул., 19	Кировоградская ул., 19	data.mos
579	2626	55.61324137	37.5918762	4184708.5165477796	7481805.079418653	Чертаново Центральное	Чертаново Центральное	data.mos
580	2627	55.60018892	37.58871827	4184356.977388219	7479232.821474183	ОВД «Чертаново Южное»	ОВД «Чертаново Южное»	data.mos
581	2747	55.60299094	37.63067925	4189028.052315006	7479784.945898619	МЦД Покровское	МЦД Покровское	data.mos
582	2720	55.6071374815	37.6017227493	4185804.6294019273	7480602.0741212685	Сквер «Родная гавань»	Сквер «Родная гавань»	data.mos
583	2628	55.59667811	37.58788823	4184264.5777580803	7478541.089081192	Чертаново Южное	Чертаново Южное	data.mos
584	2749	55.6009665438	37.6198472342	4187822.2378318855	7479386.044511503	3-й Дорожный пр., 10	3-й Дорожный пр., 10	data.mos
585	2721	55.61156624	37.60112978	4185738.6203613947	7481474.912172566	Метро «Пражская»	Метро «Пражская»	data.mos
586	2750	55.60184219	37.61420659	4187194.324191795	7479558.585523721	3-й Дорожный пр., 6	3-й Дорожный пр., 6	data.mos
587	2722	55.61173832	37.5912788	4184642.01428398	7481508.8284004675	Чертаново Центральное	Чертаново Центральное	data.mos
588	2723	55.5998348	37.58842803	4184324.668019212	7479163.046655904	ОВД «Чертаново Южное»	ОВД «Чертаново Южное»	data.mos
589	2751	55.60250937	37.60981146	4186705.060558225	7479690.052063805	Россошанский пр.	Россошанский пр.	data.mos
590	2724	55.59862006	37.58813659	4184292.225066814	7478923.70245603	Поликлиника	Поликлиника	data.mos
591	2760	55.8792907	37.7203647	4199011.790940572	7534423.280556936	Холмогорская ул.	Холмогорская ул.	data.mos
592	2730	55.60049249	37.6082212	4186528.033624796	7479292.636562671	Россошанский проезд, 3	Россошанский проезд, 3	data.mos
593	2764	55.82593763	37.64738744	4190887.9995178836	7523842.5080749495	Ул. Бориса Галушкина	Ул. Бориса Галушкина	data.mos
594	2767	55.87484298	37.71609144	4198536.093813344	7533540.670821162	Новый театр	Новый театр	data.mos
595	2785	55.86035695	37.60227624	4185866.2437048093	7530666.750090865	Микрорайон 4 «Д» Отрадного	Микрорайон 4 «Д» Отрадного	data.mos
596	2948	55.7984803	37.61455093	4187232.6559452545	7518402.93272045	6-й пр. Марьиной Рощи	6-й пр. Марьиной Рощи	data.mos
597	2949	55.7983493791	37.6093476173	4186653.4258250534	7518377.005153079	1-й Стрелецкий пер.	1-й Стрелецкий пер.	data.mos
598	2950	55.79816246	37.60294091	4185940.234430755	7518339.98785653	Комбинат твёрдых сплавов	Комбинат твёрдых сплавов	data.mos
599	2951	55.79678091	37.59827331	4185420.639575529	7518066.392401942	Ул. Двинцев	Ул. Двинцев	data.mos
600	1000504	55.79292075	37.59977296	4185587.579849897	7517301.996500273	Ул. Сущевский Вал - Больница	Ул. Сущевский Вал - Больница	data.mos
601	2817	55.61590599	37.61151717	4186894.9393268656	7482330.303689868	Институт генетики	Институт генетики	data.mos
602	2821	55.61656097	37.61251761	4187006.3077982347	7482459.41251446	Институт генетики	Институт генетики	data.mos
603	2826	55.59984873	37.60379737	4186035.5751218405	7479165.791372397	Варшавское ш., 150	Варшавское ш., 150	data.mos
604	2828	55.5979677285	37.6203799848	4187881.5433573974	7478795.174502839	Детская п-ка	Детская п-ка	data.mos
605	2831	55.59735081	37.61972562	4187808.6998010674	7478673.625889073	Детская п-ка	Детская п-ка	data.mos
606	2833	55.59433415	37.60990004	4186714.921238719	7478079.294768459	МФЦ Чертаново Южное	МФЦ Чертаново Южное	data.mos
607	2834	55.59481914	37.60768844	4186468.7270528805	7478174.842609889	МФЦ Чертаново Южное	МФЦ Чертаново Южное	data.mos
608	2837	55.85164695	37.6118948	4186936.976906175	7528939.266632324	Метродепо	Метродепо	data.mos
609	2853	55.63277477	37.61776784	4187590.7607283825	7485656.1439289935	Центр боевых искусств	Центр боевых искусств	data.mos
610	2855	55.62777882	37.61119447	4186859.016527187	7484670.995727061	Кировоградская ул., 6	Кировоградская ул., 6	data.mos
611	2859	55.62842684	37.61191279	4186938.9795438135	7484798.7712898515	Кировоградская ул., 6	Кировоградская ул., 6	data.mos
612	2860	55.6315207	37.61338952	4187103.3683754522	7485408.842856644	Кировоградская ул., 4	Кировоградская ул., 4	data.mos
613	2861	55.6329463	37.61520075	4187304.993576762	7485689.970050829	Кировоградская ул., 2	Кировоградская ул., 2	data.mos
614	2862	55.63244813	37.61816146	4187634.578306349	7485591.730157645	Центр боевых искусств	Центр боевых искусств	data.mos
615	2865	55.82423098	37.62210176	4188073.2104959213	7523504.291535273	Хованская ул.	Хованская ул.	data.mos
616	2866	55.82447109	37.61783383	4187598.10670158	7523551.874603049	Парк «Останкино»	Парк «Останкино»	data.mos
617	2867	55.8237651065096	37.6095102293031	4186671.5277104345	7523411.969313261	Центр реабилитации	Центр реабилитации	data.mos
618	2868	55.8237755	37.60464811	4186130.2790654376	7523414.028980815	Телецентр	Телецентр	data.mos
619	2871	55.82353526	37.60564238	4186240.960695548	7523366.421002005	Телецентр	Телецентр	data.mos
620	2872	55.8235689731161	37.6103196172729	4186761.6283670873	7523373.101858884	Центр реабилитации	Центр реабилитации	data.mos
621	2873	55.82431264	37.61752717	4187563.969466534	7523520.474224045	Парк «Останкино»	Парк «Останкино»	data.mos
622	2874	55.82397446	37.6228194	4188153.0978152943	7523453.456790217	Хованская ул.	Хованская ул.	data.mos
623	2875	55.82371711	37.62852095	4188787.7914580274	7523402.45790031	Южный вход ВДНХ	Южный вход ВДНХ	data.mos
624	2889	55.87587535	37.62032261	4187875.156423877	7533745.526283584	Ясный пр.	Ясный пр.	data.mos
625	2900	55.62288696	37.59565138	4185128.767663033	7483706.4946464095	К/т «Ашхабад»	К/т «Ашхабад»	data.mos
626	2913	55.59297205	37.61510954	4187294.840126007	7477810.953871177	Дорожная ул.	Дорожная ул.	data.mos
627	2914	55.59152513	37.61442788	4187218.958081913	7477525.913187884	Дорожная ул., 32	Дорожная ул., 32	data.mos
628	2916	55.59159669	37.61474529	4187254.292001486	7477540.010134405	Дорожная ул., 32	Дорожная ул., 32	data.mos
629	2926	55.86408974	37.66676669	4193045.287759839	7531407.205385378	Поликлиника	Поликлиника	data.mos
630	2928	55.85983603	37.66061358	4192360.326687844	7530563.423395457	Радужная ул.	Радужная ул.	data.mos
631	2929	55.86437131	37.6635907	4192691.738170274	7531463.061935071	Печорская ул.	Печорская ул.	data.mos
632	2930	55.86379182	37.66707003	4193079.0554141756	7531348.105839404	Поликлиника	Поликлиника	data.mos
633	2931	55.86321039	37.67294184	4193732.7023134106	7531232.766620544	Ул. Летчика Бабушкина	Ул. Летчика Бабушкина	data.mos
634	2941	55.81572765	37.59152743	4184669.6916489755	7521819.359350136	2-й Гончаровский пер.	2-й Гончаровский пер.	data.mos
635	2942	55.81312017	37.59477233	4185030.912264651	7521302.761761503	Ул. Добролюбова	Ул. Добролюбова	data.mos
636	2813	55.596297495	37.6058007427	4186258.5895506726	7478466.100497847	Россошанская ул.	Россошанская ул.	data.mos
637	2995	55.81336784	37.59522127	4185080.888036848	7521351.829001043	Ул. Добролюбова	Ул. Добролюбова	data.mos
638	3105	55.785304614	37.6221421125	4188077.702515674	7515794.057565496	Дом Ветеранов войны	Дом Ветеранов войны	data.mos
639	2996	55.81582961	37.59110417	4184622.574561303	7521839.560511309	2-й Гончаровский переулок	2-й Гончаровский переулок	data.mos
640	3106	55.78063814	37.62288634	4188160.5495420084	7514870.27565679	Спорткомплекс «Олимпийский»	Спорткомплекс «Олимпийский»	data.mos
641	3107	55.77984907	37.62120063	4187972.8971631825	7514714.0811591055	Театр зверей им. Дурова	Театр зверей им. Дурова	data.mos
642	2997	55.81506632	37.58401575	4183833.4952563737	7521688.3324484	Туб. диспансер № 18	Туб. диспансер № 18	data.mos
643	3003	55.5996462471	37.6364431153	4189669.6828652024	7479125.894974719	Ул. Подольских Курсантов, 22	Ул. Подольских Курсантов, 22	data.mos
644	3108	55.77737604	37.61795468	4187611.559662042	7514224.571342151	Самотечная ул.	Самотечная ул.	data.mos
645	3109	55.7811231576	37.6235489417	4188234.310025851	7514966.28528701	Спорткомплекс «Олимпийский»	Спорткомплекс «Олимпийский»	data.mos
646	3110	55.78635174	37.62258779	4188127.315108031	7516001.363335185	Дом Ветеранов войны	Дом Ветеранов войны	data.mos
647	3111	55.8109444258211	37.6187807605963	4187703.5185333765	7520871.726766798	Калибровская ул.	Калибровская ул.	data.mos
648	2956	55.77214749	37.57170017	4182462.53116195	7513189.738090411	М. Грузинская ул.	М. Грузинская ул.	data.mos
649	3004	55.59622753	37.63585984	4189604.7529558153	7478452.31610651	Покровское кладб.	Покровское кладб.	data.mos
650	3027	55.59677651	37.63653098	4189679.4639188657	7478560.475919974	Покровское кладб.	Покровское кладб.	data.mos
651	2978	55.76854718	37.56541032	4181762.3482627836	7512477.246372071	Ул. Климашкина	Ул. Климашкина	data.mos
652	3028	55.6000297331	37.6370160515	4189733.4618312437	7479201.455652951	Ул. Подольских Курсантов, 22	Ул. Подольских Курсантов, 22	data.mos
653	2979	55.76995229	37.56618862	4181848.9882224677	7512755.306053007	Б. Тишинский пер.	Б. Тишинский пер.	data.mos
654	3005	55.59245271	37.63525558	4189537.487040308	7477708.643599704	Ул. Подольских Курсантов, 26	Ул. Подольских Курсантов, 26	data.mos
655	2980	55.77213656	37.57247339	4182548.605618621	7513187.574973059	М. Грузинская ул.	М. Грузинская ул.	data.mos
656	3031	55.65628877	37.60816327	4186521.584886694	7490294.542246314	Москворецкий рынок	Москворецкий рынок	data.mos
657	1000505	55.79312083	37.60041436	4185658.9801712916	7517341.614843987	Ул. Сущевский Вал - Больница	Ул. Сущевский Вал - Больница	data.mos
658	3032	55.65614802	37.6137254	4187140.7583660204	7490266.769455013	Болотниковская ул., 4	Болотниковская ул., 4	data.mos
659	3006	55.58891111	37.63470718	4189476.4394315565	7477010.982509625	Ступинский пр.	Ступинский пр.	data.mos
660	2985	55.79563824	37.59980657	4185591.3212979822	7517840.110916554	Стрелецкая ул.	Стрелецкая ул.	data.mos
661	3033	55.65601635	37.61835633	4187656.2711355193	7490240.78841979	Болотниковская ул., 1	Болотниковская ул., 1	data.mos
662	3007	55.58689302	37.6395947	4190020.5156691987	7476613.466373398	Харьковская ул.	Харьковская ул.	data.mos
663	2988	55.79623015	37.61322506	4187085.0607719966	7517957.325271448	Октябрьская ул.	Октябрьская ул.	data.mos
664	3034	55.65754082	37.61979733	4187816.682521752	7490541.601158772	Болотниковская ул.	Болотниковская ул.	data.mos
665	3008	55.58315972	37.64104033	4190181.442464675	7475878.148191807	Востряковский пр., 3	Востряковский пр., 3	data.mos
666	2994	55.813819256117	37.6000125267666	4185614.2483003656	7521441.262285981	Метро «Бутырская»	Метро «Бутырская»	data.mos
667	3009	55.5805208136	37.6431324539	4190414.336631899	7475358.426131112	Востряковский проезд	Востряковский проезд	data.mos
668	3010	55.58107784	37.64833146	4190993.0873435815	7475468.12734386	К/т «Бирюсинка»	К/т «Бирюсинка»	data.mos
669	3036	55.66435053	37.62104973	4187956.099052022	7491885.455480623	Симферопольский проезд	Симферопольский проезд	data.mos
670	3011	55.58211853	37.64791486	4190946.7116437177	7475673.08581299	Управа района Бирюлёво Западное	Управа района Бирюлёво Западное	data.mos
671	3037	55.66939914	37.62533477	4188433.1075228513	7492881.918512749	Хлебозаводский пр.	Хлебозаводский пр.	data.mos
672	3012	55.5848123	37.6468648	4190829.8194992156	7476203.635003476	Медынская ул., 12	Медынская ул., 12	data.mos
673	3038	55.67542781	37.62646871	4188559.3371462408	7494071.988092506	1-й Нагатинский пр.	1-й Нагатинский пр.	data.mos
674	3014	55.58706418	37.65681482	4191937.4506589975	7476647.180063603	ОВД «Бирюлёво Западное»	ОВД «Бирюлёво Западное»	data.mos
675	3015	55.58929215	37.65555339	4191797.0289137266	7477086.040697334	Булатниковский пр., 10	Булатниковский пр., 10	data.mos
676	3041	55.68969014	37.62171054	4188029.6600847333	7496888.126308939	МЦК Верхние Котлы	МЦК Верхние Котлы	data.mos
677	3016	55.59235391	37.65238909	4191444.780649009	7477689.180097548	Ст. Бирюлево-тов.	Ст. Бирюлево-тов.	data.mos
678	3046	55.71387425	37.62458854	4188350.037579236	7501665.697260415	Серпуховская Застава	Серпуховская Застава	data.mos
679	3018	55.58907045	37.64537439	4190663.9078169414	7477042.369602452	Медынская ул., 8	Медынская ул., 8	data.mos
680	3047	55.71544578	37.62570327	4188474.1287552086	7501976.255340452	Александровские казармы	Александровские казармы	data.mos
681	3019	55.58678319	37.64574591	4190705.265234161	7476591.8330400195	Медынская улица	Медынская улица	data.mos
682	3048	55.71942783	37.62780194	4188707.751630951	7502763.2245481815	3-й Павловский пер. - Театриум на Серпуховке	3-й Павловский пер. - Театриум на Серпуховке	data.mos
683	3020	55.58438499	37.64669631	4190811.0632782113	7476119.472094484	Медынская ул., 12	Медынская ул., 12	data.mos
684	3049	55.72210574	37.62770898	4188697.4033710877	7503292.502783822	Ул. Павла Андреева	Ул. Павла Андреева	data.mos
685	3050	55.72499391	37.62622664	4188532.3900371045	7503863.378752218	Ин-т им. Вишневского	Ин-т им. Вишневского	data.mos
686	3022	55.58044445	37.64742772	4190892.4834669726	7475343.387145609	К/т «Бирюсинка»	К/т «Бирюсинка»	data.mos
687	3053	55.73267626	37.61994227	4187832.8171687485	7505382.078375824	1-й Спасоналивковский пер.	1-й Спасоналивковский пер.	data.mos
688	3023	55.58537204	37.64057509	4190129.6521847774	7476313.882690115	Востряковский пр., 3	Востряковский пр., 3	data.mos
689	3059	55.73322384	37.61936368	4187768.4088245705	7505490.339155098	1-й Казачий пер.	1-й Казачий пер.	data.mos
690	3060	55.73044364	37.62271981	4188142.011507206	7504940.687941108	Серпуховская пл.	Серпуховская пл.	data.mos
691	3025	55.58917091	37.63528842	4189541.1427723854	7477062.158467656	Ступинский пр.	Ступинский пр.	data.mos
692	3062	55.72263741	37.62219435	4188083.5175675745	7503397.589557905	3-й Люсиновский пер.	3-й Люсиновский пер.	data.mos
693	3064	55.71725319	37.62217293	4188081.133104081	7502333.442322017	Детская п-ка	Детская п-ка	data.mos
694	2962	55.75595346	37.54964802	4180007.6970530534	7509985.500393115	Мантулинская ул.	Мантулинская ул.	data.mos
695	3065	55.71289872	37.62209302	4188072.237563572	7501472.924073041	Даниловский рынок	Даниловский рынок	data.mos
696	2963	55.75360976	37.54556839	4179553.5547188283	7509521.8735464625	1-й Красногвардейский пр.	1-й Красногвардейский пр.	data.mos
697	3071	55.67861735	37.62474332	4188367.267610022	7494701.682825472	Нижние Котлы	Нижние Котлы	data.mos
698	2957	55.77024842	37.56622358	4181852.879951866	7512813.909016526	Б. Тишинский пер.	Б. Тишинский пер.	data.mos
699	3072	55.6739732	37.62597533	4188504.414335874	7493784.82885099	1-й Нагатинский пр.	1-й Нагатинский пр.	data.mos
700	3073	55.66870138	37.62399249	4188283.6855967487	7492744.19135649	Хлебозаводский пр.	Хлебозаводский пр.	data.mos
701	3076	55.65639377	37.61311211	4187072.487235512	7490315.260912315	Болотниковская ул., 4	Болотниковская ул., 4	data.mos
702	3079	55.81921686	37.59156004	4184673.3217775705	7522510.70067443	Огородный проезд	Огородный проезд	data.mos
703	3080	55.81461396	37.59307444	4184841.904014428	7521598.709293288	Ул. Гончарова	Ул. Гончарова	data.mos
704	3091	55.81511561	37.59377086	4184919.4291342064	7521698.098019597	Ул. Гончарова	Ул. Гончарова	data.mos
705	3092	55.81842195	37.59261757	4184791.0454786695	7522353.194202201	Огородный пр.	Огородный пр.	data.mos
706	3094	55.62380949	37.59396605	4184941.157585614	7483888.375593043	К/т «Ашхабад»	К/т «Ашхабад»	data.mos
707	2969	55.85698063	37.66085193	4192386.8596884743	7529997.067281996	Берингов пр.	Берингов пр.	data.mos
708	2971	55.85716718	37.65602636	4191849.6796932863	7530034.067388572	Кольская ул.	Кольская ул.	data.mos
709	2974	55.75628784	37.55043458	4180095.2565117315	7510051.649161018	Мантулинская ул.	Мантулинская ул.	data.mos
710	2958	55.76683401	37.5645397	4181665.431287709	7512138.237716317	Ул. Климашкина	Ул. Климашкина	data.mos
711	3257	55.6761207986	37.6747934836	4193938.8263360932	7494208.796957398	Ул. Новинки	Ул. Новинки	data.mos
712	3259	55.63067492	37.67334885	4193778.010459359	7485242.060542495	Школа	Школа	data.mos
713	3260	55.62994547	37.66443337	4192785.5437655803	7485098.2206387315	Кавказский бульв., 18	Кавказский бульв., 18	data.mos
714	3261	55.63030612	37.66203415	4192518.4638168793	7485169.33670862	Пролетарский проспект, 45	Пролетарский проспект, 45	data.mos
715	3263	55.64499656	37.65652444	4191905.125705261	7488066.6805367395	Управа района Москворечье - Сабурово	Управа района Москворечье - Сабурово	data.mos
716	3264	55.64802614	37.65732539	4191994.287051412	7488664.329110518	Пролетарский просп.	Пролетарский просп.	data.mos
717	3269	55.68094148	37.62390492	4188273.9373489404	7495160.556383123	Платф. Нагатинская	Платф. Нагатинская	data.mos
718	3275	55.64776552	37.65657761	4191911.0445625866	7488612.914499317	Пролетарский просп.	Пролетарский просп.	data.mos
719	3165	55.78512317	37.61589363	4187382.1246255436	7515758.136582732	Центральный Музей Вооруженных сил	Центральный Музей Вооруженных сил	data.mos
720	3166	55.77448927	37.60842303	4186550.5012376225	7513653.205412609	Краснопролетарская ул.	Краснопролетарская ул.	data.mos
721	3167	55.77635344	37.60749928	4186447.6698580026	7514022.167696119	2-й Щемиловский пер.	2-й Щемиловский пер.	data.mos
722	3169	55.78081129	37.60987479	4186712.1104215765	7514904.550703607	Селезневская ул.	Селезневская ул.	data.mos
723	3170	55.78261737	37.61565505	4187355.5660214294	7515262.073364647	Центральный Театр Российской Армии	Центральный Театр Российской Армии	data.mos
724	3171	55.78525553	37.61643634	4187442.5388263916	7515784.340250442	Центральный Музей Вооруженных сил	Центральный Музей Вооруженных сил	data.mos
725	3181	55.78961555	37.58860038	4184343.85393345	7516647.554988888	Угловой пер.	Угловой пер.	data.mos
726	3186	55.780751	37.60738951	4186435.450317498	7514892.61627932	Селезневская ул.	Селезневская ул.	data.mos
727	3187	55.77995384	37.60507947	4186178.297840986	7514734.819945063	Метро «Новослободская»	Метро «Новослободская»	data.mos
728	3222	55.68932657	37.69414129	4196092.614292508	7496816.32560561	Храм Спиридона	Храм Спиридона	data.mos
729	3188	55.77629164	37.60717368	4186411.4242318003	7514009.935766429	2-й Щемиловский пер.	2-й Щемиловский пер.	data.mos
730	3206	55.66287143	37.61589928	4187382.753580666	7491593.544329894	Нахимовский проспект, 1	Нахимовский проспект, 1	data.mos
731	1000506	55.65626463	37.61765292	4187577.9678925006	7490289.778934198	Болотниковская ул., 1	Болотниковская ул., 1	data.mos
732	3208	55.61068154	37.60733438	4186429.31327397	7481300.543957064	Метро «Пражская»	Метро «Пражская»	data.mos
733	3211	55.6796555861	37.6986089196	4196589.948544633	7494906.667598987	ОВД Нагатинский Затон	ОВД Нагатинский Затон	data.mos
734	3212	55.6783303	37.69438885	4196120.172545649	7494645.009894871	Корабельная улица	Корабельная улица	data.mos
735	3213	55.67711796	37.69009163	4195641.8082034215	7494405.65945456	Диспансер	Диспансер	data.mos
736	3224	55.68606018	37.69145258	4195793.308464418	7496171.282798126	Нагатино	Нагатино	data.mos
737	3215	55.6761856159	37.6774511688	4194234.6784992456	7494221.593224362	Кленовый бульв.	Кленовый бульв.	data.mos
738	3216	55.67711439	37.6663927	4193003.655383477	7494404.954645851	Районный центр «Орбита»	Районный центр «Орбита»	data.mos
739	3227	55.6895495114	37.6946535851	4196149.642722176	7496860.353772221	Храм Спиридона	Храм Спиридона	data.mos
740	3218	55.686272	37.67304993	4193744.73483717	7496213.111125721	Причал «Кленовый бульвар»	Причал «Кленовый бульвар»	data.mos
741	3219	55.68796666	37.67899146	4194406.142931303	7496547.765651415	Нагатинская набережная, 48	Нагатинская набережная, 48	data.mos
742	3228	55.69088822	37.68910616	4195532.106184831	7497124.737428039	Нагатинская набережная, 62	Нагатинская набережная, 62	data.mos
743	3220	55.68951802	37.68442481	4195010.980686606	7496854.13459534	Якорная ул.	Якорная ул.	data.mos
744	3255	55.68333233	37.66383372	4192718.7910329266	7495632.631514271	Метромост	Метромост	data.mos
745	3221	55.69084294	37.69024334	4195658.696483371	7497115.794862086	Нагатинская набережная, 62	Нагатинская набережная, 62	data.mos
746	3229	55.689356	37.68318523	4194872.991272207	7496822.137651902	Якорная ул.	Якорная ул.	data.mos
747	3230	55.68790252	37.67802001	4194298.001611972	7496535.09928247	Нагатинская набережная, 48	Нагатинская набережная, 48	data.mos
748	3447	55.78219939	37.6710142	4193518.118410178	7515179.330638029	Леснорядская ул.	Леснорядская ул.	data.mos
749	3448	55.78001484	37.66689278	4193059.3240344324	7514746.894667162	Метро «Красносельская»	Метро «Красносельская»	data.mos
750	3231	55.68637014	37.67247617	4193680.864166133	7496232.491015907	Причал «Кленовый бульвар»	Причал «Кленовый бульвар»	data.mos
751	3449	55.77659878	37.65901295	4192182.1453712946	7514070.72746077	Метро «Комсомольская»	Метро «Комсомольская»	data.mos
752	3450	55.77634369	37.64971228	4191146.799522859	7514020.237900098	МЦД Каланчёвская	МЦД Каланчёвская	data.mos
753	3236	55.67717012	37.69107562	4195751.345469167	7494415.957171232	Диспансер	Диспансер	data.mos
754	3298	55.84315257	37.66534786	4192887.344326716	7527254.9206795	МЦК Ростокино	МЦК Ростокино	data.mos
755	3237	55.67831299	37.69516819	4196206.928277603	7494641.592355726	Корабельная улица	Корабельная улица	data.mos
756	3300	55.83266096	37.65264608	4191473.388644948	7525175.053019304	Сельскохозяйственная ул.	Сельскохозяйственная ул.	data.mos
757	3238	55.680487363	37.7004384522	4196793.6111820545	7495070.893900929	ОВД Нагатинский Затон	ОВД Нагатинский Затон	data.mos
758	3315	55.82879144	37.64887898	4191054.0369911804	7524408.096990955	Ул. Сергея Эйзенштейна	Ул. Сергея Эйзенштейна	data.mos
759	3316	55.831874	37.65211964	4191414.7856122153	7525019.067875167	Сельскохозяйственная ул.	Сельскохозяйственная ул.	data.mos
760	3317	55.83693377	37.65819636	4192091.242988308	7526022.031574628	Ул. Докукина	Ул. Докукина	data.mos
761	3241	55.67654682	37.67354687	4193800.0539449253	7494292.902724439	Ул. Новинки	Ул. Новинки	data.mos
762	3318	55.8428769	37.66535241	4192887.850830399	7527200.264392543	МЦК Ростокино	МЦК Ростокино	data.mos
763	3242	55.68526674	37.66345606	4192676.7501140335	7496014.603345421	Метромост	Метромост	data.mos
764	3320	55.85073276	37.67070145	4193483.303239433	7528757.9747212315	Комбинат «Лира» - Пенсионный фонд	Комбинат «Лира» - Пенсионный фонд	data.mos
765	3243	55.68472626	37.65646723	4191898.7571171923	7495907.877359407	Нагатинская наб., 18	Нагатинская наб., 18	data.mos
766	3321	55.854727567	37.6648915064	4192836.543276342	7529550.211457073	Берингов пр.	Берингов пр.	data.mos
767	3244	55.68404309	37.64766085	4190918.435379861	7495772.977175921	Нагатинская набережная, 14	Нагатинская набережная, 14	data.mos
768	3245	55.68356662	37.64150841	4190233.548891925	7495678.893803601	Нагатинская наб., 10	Нагатинская наб., 10	data.mos
769	3322	55.85949898	37.66023251	4192317.906169487	7530496.568834024	Радужная ул.	Радужная ул.	data.mos
770	3246	55.68178688	37.63397516	4189394.951337906	7495327.477951147	Ювелирный з-д	Ювелирный з-д	data.mos
771	3326	55.87414701	37.63721766	4189755.9047868033	7533402.571028347	К/т «Полярный»	К/т «Полярный»	data.mos
772	3251	55.68127035	37.6334879	4189340.7098028217	7495225.490300308	Ювелирный з-д	Ювелирный з-д	data.mos
773	3327	55.8779133	37.63611544	4189633.2062176606	7534149.937199035	Ул. Молодцова	Ул. Молодцова	data.mos
774	3252	55.68327491	37.64103269	4190180.591983765	7495621.293553852	Нагатинская наб., 10	Нагатинская наб., 10	data.mos
775	3328	55.88162384	37.63907886	4189963.092623068	7534886.311485036	Поликлиника	Поликлиника	data.mos
776	3253	55.68386605	37.64849744	4191011.5641526636	7495738.0188700445	Нагатинская набережная, 14	Нагатинская набережная, 14	data.mos
777	3329	55.8873591563	37.6434094977	4190445.1770066414	7536024.650736621	Медведково	Медведково	data.mos
778	3254	55.68456344	37.65739031	4192001.513912754	7495875.726366241	Нагатинская наб., 18	Нагатинская наб., 18	data.mos
779	3331	55.87889939	37.63611889	4189633.590269904	7534345.624576268	Ул. Молодцова	Ул. Молодцова	data.mos
780	3335	55.65349763	37.6147332	4187252.946148842	7489743.813117588	Метро «Варшавская»	Метро «Варшавская»	data.mos
781	3336	55.65348226	37.61114746	4186853.7833979246	7489740.780520396	Пл. Акад. Вишневского	Пл. Акад. Вишневского	data.mos
782	3347	55.66733882	37.55191024	4180259.5262315157	7492475.249924324	Школа-интернат № 17	Школа-интернат № 17	data.mos
783	3350	55.6672012	37.55109329	4180168.583773512	7492448.087076124	Школа-интернат № 17	Школа-интернат № 17	data.mos
784	3362	55.81311993	37.59291293	4184823.92480347	7521302.714213963	2-й Гончаровский пер.	2-й Гончаровский пер.	data.mos
785	3286	55.88198239	37.63910293	4189965.772083211	7534957.471164725	Поликлиника	Поликлиника	data.mos
786	3288	55.87175104	37.63767508	4189806.824548282	7532927.162910998	МФЦ «Южное Медведково»	МФЦ «Южное Медведково»	data.mos
787	3289	55.87148746	37.64633695	4190771.0595059996	7532874.865185827	Пр. Шокальского	Пр. Шокальского	data.mos
788	3279	55.62940816	37.6727812	4193714.81995041	7484992.27044403	Школа	Школа	data.mos
789	3363	55.81230686	37.58460862	4183899.4932428803	7521141.634726978	Ул. Яблочкова	Ул. Яблочкова	data.mos
790	3366	55.78685006	37.5934603	4184884.8577531446	7516100.020669803	Вадковский пер.	Вадковский пер.	data.mos
791	3367	55.78353752	37.59701957	4185281.073877141	7515444.228078482	Лесная ул.	Лесная ул.	data.mos
792	3368	55.77838445	37.60143355	4185772.435883113	7514424.171556616	Метро «Новослободская»	Метро «Новослободская»	data.mos
793	3370	55.77157092	37.6046095	4186125.9810198983	7513075.632004247	Садовая-Каретная ул.	Садовая-Каретная ул.	data.mos
794	3371	55.76678578	37.60640124	4186325.4366043312	7512128.693994381	Ул. М. Дмитровка	Ул. М. Дмитровка	data.mos
795	3372	55.76578344	37.60862818	4186573.3384311586	7511930.354260575	Метро «Чеховская»	Метро «Чеховская»	data.mos
796	3375	55.76746405	37.60646798	4186332.866067147	7512262.910718075	Ул. М. Дмитровка	Ул. М. Дмитровка	data.mos
797	3376	55.77120214	37.60522392	4186194.377941431	7513002.649483151	Садовая-Каретная ул.	Садовая-Каретная ул.	data.mos
798	3378	55.77836424	37.60191489	4185826.018406812	7514420.171227901	Метро «Новослободская»	Метро «Новослободская»	data.mos
799	3379	55.78179139	37.59898322	4185499.666395237	7515098.564394084	Метро «Менделеевская»	Метро «Менделеевская»	data.mos
800	16223	55.59310354	37.2357895781	4145069.135119575	7477836.857689783	АЗС	АЗС	data.mos
801	3380	55.78801454	37.59323759	4184860.0657893512	7516330.569202567	Вадковский пер.	Вадковский пер.	data.mos
802	3383	55.81215779	37.58532915	4183979.702275582	7521112.102432927	Ул. Яблочкова	Ул. Яблочкова	data.mos
803	3387	55.58006633	37.64953224	4191126.7575617363	7475268.920930242	К/т «Бирюсинка»	К/т «Бирюсинка»	data.mos
804	3384	55.81270537	37.59106982	4184618.7507367944	7521220.584195638	2-й Гончаровский пер.	2-й Гончаровский пер.	data.mos
805	3388	55.57982222	37.65270795	4191480.275981844	7475220.846763879	Ледовый дворец	Ледовый дворец	data.mos
806	3389	55.57849565	37.65998173	4192289.989467586	7474959.601951168	Детская п-ка	Детская п-ка	data.mos
807	3390	55.57525267	37.65851617	4192126.844074659	7474320.990792491	МФЦ Бирюлево Западное	МФЦ Бирюлево Западное	data.mos
808	3394	55.57891735	37.65957404	4192244.6056243847	7475042.647450474	Детская п-ка	Детская п-ка	data.mos
809	3386	55.5874871731	37.6406289296	4190135.645581634	7476730.498398892	Харьковская ул.	Харьковская ул.	data.mos
810	3395	55.58013006	37.65182515	4191382.003135371	7475281.471741898	Ледовый дворец	Ледовый дворец	data.mos
811	3396	55.58741619	37.64463014	4190581.058285918	7476716.5165626705	Медынская улица	Медынская улица	data.mos
812	3405	55.82350381	37.63501948	4189511.2045085314	7523360.188627274	ВДНХ (главный вход)	ВДНХ (главный вход)	data.mos
813	3409	55.57521133	37.65668423	4191922.913446695	7474312.850415055	МФЦ Бирюлево Западное	МФЦ Бирюлево Западное	data.mos
814	3411	55.59096542	37.64774168	4190927.433334302	7477415.654125878	Медынская улица, 4	Медынская улица, 4	data.mos
815	3412	55.59184885	37.65368854	4191589.43476132	7477589.684543235	Ст. Бирюлево-тов.	Ст. Бирюлево-тов.	data.mos
816	3413	55.58856241	37.65553886	4191795.4114415254	7476942.295372483	Булатниковский пр., 10	Булатниковский пр., 10	data.mos
817	3414	55.58615145	37.65695948	4191953.5541365356	7476467.399707351	ОВД «Бирюлёво Западное»	ОВД «Бирюлёво Западное»	data.mos
818	3415	55.5809769445	37.6591255122	4192194.6757380813	7475448.256790132	Платф. Бирюлево - пасс.	Платф. Бирюлево - пасс.	data.mos
819	3455	55.70480891	37.82721132	4210905.902271954	7499874.492918417	Роддом № 8	Роддом № 8	data.mos
820	3419	55.78285868	37.64212878	4190302.608164428	7515309.8431533575	Орлово-Давыдовский пер.	Орлово-Давыдовский пер.	data.mos
821	3420	55.77998709	37.64350689	4190456.018667885	7514741.401655994	Протопоповский пер.	Протопоповский пер.	data.mos
822	3421	55.77785337	37.64745864	4190895.9254656276	7514319.051286994	Грохольский пер.	Грохольский пер.	data.mos
823	3422	55.7760724	37.64957201	4191131.1847378854	7513966.542261637	МЦД Каланчёвская	МЦД Каланчёвская	data.mos
824	3428	55.78634871	37.67742329	4194231.5750454264	7516000.763460002	Маленковская ул.	Маленковская ул.	data.mos
825	3290	55.87139526	37.65163632	4191360.982675925	7532856.571581714	Сухонская ул.	Сухонская ул.	data.mos
826	3611	55.82199764	37.63369298	4189363.5392039944	7523061.720253682	ВДНХ (южн.)	ВДНХ (южн.)	data.mos
827	3291	55.87035378	37.65833397	4192106.5616634367	7532649.932268045	Ул. Менжинского, 38	Ул. Менжинского, 38	data.mos
828	3473	55.7851504	37.59603011	4185170.927693781	7515763.527372315	Лесная ул.	Лесная ул.	data.mos
829	3292	55.86807931	37.66336063	4192666.1268950272	7532198.675541691	Метро «Бабушкинская»	Метро «Бабушкинская»	data.mos
830	3475	55.7856008444768	37.6071454956698	4186408.286766514	7515852.703511819	Пл. Борьбы	Пл. Борьбы	data.mos
831	3476	55.78524345	37.60243014	4185883.3757744427	7515781.94873643	Ул. Палиха	Ул. Палиха	data.mos
832	3482	55.79211707	37.57839628	4183207.938717446	7517142.859853956	К/т «Прага»	К/т «Прага»	data.mos
833	3295	55.8544142385	37.6650347039	4192852.4839491253	7529488.0702556465	Берингов пр.	Берингов пр.	data.mos
834	3609	55.8217648078	37.6213137939	4187985.4945109067	7523015.582370868	Аргуновская ул.	Аргуновская ул.	data.mos
835	3483	55.7904753	37.57226079	4182524.9390948787	7516817.783243497	Ул. Нижн. Масловка	Ул. Нижн. Масловка	data.mos
836	3485	55.79247837	37.60328867	4185978.946896873	7517214.400446975	Новосущевская ул.	Новосущевская ул.	data.mos
837	3487	55.63430514	37.6075975	4186458.603658388	7485957.941746954	Центр творчества «На Сумском»	Центр творчества «На Сумском»	data.mos
838	3552	55.76147097	37.53980855	4178912.372262977	7511077.075076096	Ул. Литвина-Седого	Ул. Литвина-Седого	data.mos
839	3498	55.65318273	37.5453821	4179532.8170108884	7489681.681614504	Ул. Обручева, 29	Ул. Обручева, 29	data.mos
840	3553	55.76109619	37.53931549	4178857.485074847	7511002.924356838	Ул. Литвина-Седого	Ул. Литвина-Седого	data.mos
841	3554	55.75708202	37.53986291	4178918.423590496	7510208.760198054	Шмитовский пр.	Шмитовский пр.	data.mos
842	3511	55.63400862	37.60853457	4186562.917813626	7485899.465366726	Центр творчества «На Сумском»	Центр творчества «На Сумском»	data.mos
843	3560	55.60936606	37.591337	4184648.4930783445	7481041.279273373	Чертановская ул., 44	Чертановская ул., 44	data.mos
844	3518	55.71997244	37.73179757	4200284.492207277	7502870.86160369	2-й Грайвороновский пр.	2-й Грайвороновский пр.	data.mos
845	3561	55.61605708	37.59247105	4184774.734946878	7482360.086167128	Детская стоматологическая п-ка	Детская стоматологическая п-ка	data.mos
846	3520	55.71656101	37.72606005	4199645.794402461	7502196.649223386	Грайвороновская ул.	Грайвороновская ул.	data.mos
847	3562	55.61999531	37.59364402	4184905.309369994	7483136.4205542635	Чертановская ул., 28	Чертановская ул., 28	data.mos
848	3456	55.70818502	37.82970615	4211183.62547717	7500541.523897758	Рязанский просп.	Рязанский просп.	data.mos
849	3563	55.60920098	37.59064068	4184570.979090515	7481008.744680611	Чертановская ул., 44	Чертановская ул., 44	data.mos
850	3458	55.70776478	37.82926602	4211134.630429687	7500458.49233145	Рязанский просп.	Рязанский просп.	data.mos
851	3564	55.60229653	37.5889808	4184386.2020941377	7479648.112106922	Чертановская улица, 53	Чертановская улица, 53	data.mos
852	3451	55.78100141	37.64325965	4190428.496036981	7514942.185137774	Протопоповский пер.	Протопоповский пер.	data.mos
853	3565	55.61986916	37.59426469	4184974.4020383446	7483111.551680564	Чертановская ул., 28	Чертановская ул., 28	data.mos
854	3531	55.63268467	37.65890885	4192170.5570123037	7485638.376055138	Пролетарский просп., 33	Пролетарский просп., 33	data.mos
855	3532	55.63158775	37.66817521	4193202.083489011	7485422.064834481	Районный центр «Эльбрус»	Районный центр «Эльбрус»	data.mos
856	3537	55.65823855	37.51745409	4176423.8851588187	7490679.283126644	Ул. Обручева, 15	Ул. Обручева, 15	data.mos
857	3566	55.61620561	37.5931887	4184854.6233794456	7482389.364135558	Детская стоматологическая п-ка	Детская стоматологическая п-ка	data.mos
858	3541	55.64101712	37.60817731	4186523.147812345	7487281.722278015	Метро «Чертановская»	Метро «Чертановская»	data.mos
859	3542	55.64070281	37.61369274	4187137.1226714505	7487219.726945063	Балаклавский просп., 3	Балаклавский просп., 3	data.mos
860	3569	55.64474274	37.61397409	4187168.4424101855	7488016.611285483	Артековская ул.	Артековская ул.	data.mos
861	3550	55.75704675	37.54023564	4178959.9157043	7510201.782736785	Шмитовский пр.	Шмитовский пр.	data.mos
862	3571	55.64109921	37.61291704	4187050.7721424424	7487297.914007941	Балаклавский просп., 3	Балаклавский просп., 3	data.mos
